City_ID,City,Lat,Lng,Max Temp,Humidity,Cloudiness,Wind Speed,Country,Date
0,puerto natales,-51.7236,-72.4875,0.11,81,100,1.41,CL,1723086660
1,edinburgh of the seven seas,-37.0676,-12.3116,9.19,53,100,10.87,SH,1723086661
2,san patricio,28.017,-97.5169,30.5,62,0,5.48,US,1723086662
3,port-aux-francais,-49.35,70.2167,0.59,96,100,11.08,TF,1723086663
4,yellowknife,62.456,-114.3525,20.87,37,0,4.92,CA,1723086579
5,ancud,-41.8697,-73.8203,4.4,89,4,1.78,CL,1723086665
6,kotel'nikovo,47.6317,43.1461,22.12,60,74,3.33,RU,1723086668
7,nishinoomote,30.7333,131.0,29.68,75,0,5.56,JP,1723086669
8,adamstown,-25.066,-130.1015,19.47,65,94,1.75,PN,1723086670
9,albany,42.6001,-73.9662,18.23,78,1,0.45,US,1723086466
10,grytviken,-54.2811,-36.5092,-10.01,74,21,4.68,GS,1723086672
11,howrah,22.5892,88.3103,29.0,89,75,3.6,IN,1723086673
12,mwinilunga,-11.7358,24.4293,13.02,36,69,1.96,ZM,1723086674
13,mahina,-17.5065,-149.489,26.87,78,75,6.17,PF,1723086675
14,georgetown,5.4112,100.3354,30.96,62,20,3.6,MY,1723086666
15,pimentel,-6.8367,-79.9342,17.16,82,0,6.17,PE,1723086677
16,hithadhoo,-0.6,73.0833,27.92,73,100,3.06,MV,1723086679
17,porto novo,6.4965,2.6036,23.72,85,100,3.34,BJ,1723086680
18,taroa,8.7058,171.2275,28.13,72,99,3.47,MH,1723086681
19,nar'yan-mar,67.6713,53.087,9.66,69,0,2.31,RU,1723086682
20,papatowai,-46.5619,169.4708,8.71,76,61,4.26,NZ,1723086683
21,waitangi,-43.9535,-176.5597,12.12,75,32,2.68,NZ,1723086684
22,moussoro,13.6408,16.4901,26.16,76,100,5.0,TD,1723086685
23,isafjordur,66.0755,-23.124,6.75,87,100,0.94,IS,1723086686
24,mil'kovo,55.6078,37.7956,18.13,71,100,1.69,RU,1723086687
25,nouadhibou,20.931,-17.0347,20.65,90,55,5.68,MR,1723086688
26,zarzal,4.3946,-76.0715,19.52,95,93,0.52,CO,1723086689
27,marsabit,2.3284,37.9899,15.94,86,86,8.86,KE,1723086690
28,dul'durga,50.6761,113.5931,24.03,47,83,1.27,RU,1723086692
29,olonkinbyen,70.9221,-8.7187,5.38,100,100,3.94,SJ,1723086693
30,talnakh,69.4865,88.3972,16.02,52,3,3.13,RU,1723086694
31,laguna,38.421,-121.4238,33.75,34,0,4.12,US,1723086695
32,thompson,55.7435,-97.8558,12.87,59,99,2.29,CA,1723086696
33,hermanus,-34.4187,19.2345,11.29,86,0,3.14,ZA,1723086697
34,muhos,64.808,25.9931,9.88,84,0,2.09,FI,1723086698
35,kilju,40.9642,129.3278,28.01,63,100,1.56,KP,1723086699
36,pechora,65.1472,57.2244,13.32,61,9,2.93,RU,1723086700
37,crane,31.3974,-102.3501,34.76,19,0,2.24,US,1723086701
38,lerwick,60.1545,-1.1494,13.0,88,94,13.0,GB,1723086702
39,tura,25.5198,90.2201,27.55,81,68,2.96,IN,1723086703
40,tierra blanca,14.5833,-88.5833,20.02,99,100,0.48,HN,1723086705
41,nguigmi,14.2495,13.1092,27.21,70,100,4.79,NE,1723086706
42,aweil,8.7682,27.4002,22.33,91,100,1.39,SS,1723086707
43,christchurch,-43.5333,172.6333,9.41,91,100,7.2,NZ,1723086009
44,al mijlad,11.0333,27.7333,24.6,79,100,3.83,SD,1723086709
45,tripoli,32.8752,13.1875,26.48,82,0,2.97,LY,1723086710
46,poronaysk,49.2167,143.1167,16.03,98,100,2.41,RU,1723086433
47,vorkuta,67.5,64.0,11.19,60,32,1.58,RU,1723086713
48,jayapura,-2.5333,140.7,28.66,66,74,2.73,ID,1723086714
49,sumenep,-7.0167,113.8667,29.36,63,56,7.57,ID,1723086450
50,ulladulla,-35.35,150.4667,18.76,45,4,5.13,AU,1723086716
51,bingol,38.8847,40.4939,21.0,51,0,3.23,TR,1723086717
52,east moriches,40.8051,-72.7609,19.41,92,100,2.57,US,1723086719
53,ushibukamachi,32.1906,130.0228,30.63,68,0,2.89,JP,1723086720
54,sefwi wiawso,6.2044,-2.4886,20.46,97,100,1.23,GH,1723086721
55,ust-nera,64.5667,143.2,13.94,77,98,0.71,RU,1723086722
56,port elizabeth,-33.918,25.5701,14.62,96,0,1.34,ZA,1723086723
57,palamos,41.8484,3.1291,24.75,76,29,1.32,ES,1723086724
58,blackmans bay,-43.0167,147.3167,13.18,63,100,1.79,AU,1723086725
59,choele choel,-39.2667,-65.6833,4.89,70,100,3.96,AR,1723086726
60,pekalongan,-6.8886,109.6753,28.9,58,0,1.11,ID,1723086727
61,nova sintra,14.8667,-24.7167,24.98,84,42,8.2,CV,1723086728
62,kapa'a,22.0752,-159.319,28.18,69,0,6.69,US,1723086729
63,hamilton,39.1834,-84.5333,24.12,81,0,2.57,US,1723086730
64,anadyr,64.75,177.4833,9.28,76,40,4.0,RU,1723086455
65,hadibu,12.65,54.0333,25.65,85,58,8.36,YE,1723086733
66,wailua homesteads,22.0669,-159.378,27.44,71,0,6.69,US,1723086734
67,vera,-29.4593,-60.2126,9.77,41,100,4.15,AR,1723086735
68,umluj,25.0213,37.2685,31.45,68,72,2.01,SA,1723086736
69,hawaiian paradise park,19.5933,-154.9731,27.73,73,20,3.6,US,1723086737
70,buchanan,5.8808,-10.0467,23.92,82,100,3.96,LR,1723086738
71,kristiansund,63.1115,7.732,14.36,93,100,2.06,NO,1723086739
72,invercargill,-46.4,168.35,10.57,71,59,4.47,NZ,1723086740
73,beira,-19.8436,34.8389,18.05,94,20,2.57,MZ,1723086741
74,petropavlovsk-kamchatsky,53.0452,158.6483,27.33,44,75,5.0,RU,1723086742
75,chyorny yar,48.0624,46.1091,23.15,53,72,2.59,RU,1723086743
76,margaret river,-33.95,115.0667,15.16,65,100,6.08,AU,1723086744
77,brookings,44.3114,-96.7984,19.19,94,40,3.6,US,1723086746
78,mahibadhoo,3.7833,72.9667,25.92,86,100,8.93,MV,1723086747
79,pacific grove,36.6177,-121.9166,18.03,93,75,3.13,US,1723086748
80,pavlodar,52.3,76.95,20.89,83,0,3.0,KZ,1723086749
81,lompoc,34.6391,-120.4579,21.5,78,0,2.57,US,1723086750
82,sitka,57.0531,-135.33,16.94,77,20,2.06,US,1723086751
83,enewetak,11.3474,162.3373,28.8,75,87,4.82,MH,1723086752
84,minas de marcona,-15.2119,-75.1103,9.65,91,87,5.95,PE,1723086753
85,puerto deseado,-47.7503,-65.8938,4.1,86,41,7.61,AR,1723086754
86,ciudad lazaro cardenas,17.9583,-102.2,28.11,80,100,3.49,MX,1723086755
87,kargasok,59.0556,80.8572,13.84,72,97,1.92,RU,1723086756
88,vilyuchinsk,52.9306,158.4028,28.15,78,28,5.25,RU,1723086757
89,pontiac,42.6389,-83.2911,20.05,78,20,3.09,US,1723086758
90,bethel,41.3712,-73.414,18.47,89,100,1.04,US,1723086760
91,saint-joseph,-21.3667,55.6167,17.21,77,11,3.15,RE,1723086761
92,chapada dos guimaraes,-15.4606,-55.7497,20.81,35,19,2.73,BR,1723086762
93,kodiak,57.79,-152.4072,13.73,88,75,4.12,US,1723086763
94,qaqortoq,60.7167,-46.0333,7.08,93,100,2.29,GL,1723086764
95,vila velha,-20.3297,-40.2925,22.97,88,0,4.12,BR,1723086646
96,nemuro,43.3236,145.575,17.38,100,100,2.32,JP,1723086766
97,magog,45.2668,-72.1491,14.86,87,11,0.6,CA,1723086758
98,egilsstadir,65.2653,-14.3948,7.35,97,91,2.21,IS,1723086768
99,vila franca do campo,37.7167,-25.4333,23.23,88,42,2.93,PT,1723086769
100,bodo,67.28,14.405,19.32,76,75,6.69,NO,1723086770
101,ilulissat,69.2167,-51.1,5.01,93,100,2.06,GL,1723086771
102,belel,7.05,14.4333,15.09,96,95,1.52,CM,1723086773
103,grande prairie,55.1667,-118.8027,19.21,51,27,4.73,CA,1723086493
104,kavaratti,10.5669,72.642,27.1,84,100,5.33,IN,1723086775
105,jamestown,42.097,-79.2353,19.8,88,100,4.12,US,1723086692
106,susuman,62.7833,148.1667,10.7,85,100,0.66,RU,1723086777
107,gadzhiyevo,69.2551,33.3362,13.4,62,62,3.85,RU,1723086778
108,weno,7.4515,151.8468,31.97,66,40,3.09,FM,1723086779
109,khandyga,62.6667,135.6,19.53,55,5,0.83,RU,1723086780
110,itamaraca,-7.7478,-34.8256,26.03,64,98,4.15,BR,1723086782
111,sandwip,22.4678,91.4561,27.44,87,96,12.1,BD,1723086783
112,stanley,54.868,-1.6985,13.21,82,0,4.63,GB,1723086784
113,mournies,35.4764,24.0092,38.04,73,0,1.54,GR,1723086786
114,longyearbyen,78.2186,15.6401,10.91,93,75,1.54,SJ,1723086787
115,mareeba,-17.0,145.4333,24.16,43,23,3.65,AU,1723086788
116,berber,18.0216,33.983,27.42,70,95,3.76,SD,1723086789
117,klaksvik,62.2266,-6.589,8.51,91,95,3.12,FO,1723086790
118,irkutsk,52.2978,104.2964,21.43,73,0,1.0,RU,1723086791
119,ust'-ilimsk,58.0006,102.6619,16.21,98,100,2.92,RU,1723086495
120,grand falls-windsor,48.9332,-55.6649,12.5,81,2,3.37,CA,1723086580
121,bredasdorp,-34.5322,20.0403,8.15,95,0,2.05,ZA,1723086794
122,nosy varika,-20.5833,48.5333,19.26,87,54,1.2,MG,1723086795
123,iqaluit,63.7506,-68.5145,3.8,85,70,1.23,CA,1723086796
124,west island,-12.1568,96.8225,27.99,69,14,8.75,CC,1723086797
125,yarmouth,41.7057,-70.2286,18.08,90,100,0.89,US,1723086798
126,tiksi,71.6872,128.8694,6.65,92,100,1.41,RU,1723086800
127,iskateley,67.6803,53.1512,9.63,69,0,2.3,RU,1723086801
128,hammerfest,70.6634,23.6821,19.25,48,6,1.54,NO,1723086802
129,st. john's,47.5649,-52.7093,17.1,90,62,1.79,CA,1723086803
130,port mathurin,-19.6833,63.4167,22.3,74,17,5.55,MU,1723086804
131,hagenow,53.4333,11.1833,14.65,93,83,2.85,DE,1723086805
132,gillette,44.2911,-105.5022,15.51,82,100,3.6,US,1723086806
133,tomatlan,19.9333,-105.25,27.15,82,100,1.03,MX,1723086807
134,mori,34.8333,137.9333,31.9,53,24,3.92,JP,1723086808
135,dergachi,51.2328,48.7659,21.55,63,30,1.78,RU,1723086809
136,rosarito,32.3333,-117.0333,24.4,79,16,0.87,MX,1723086810
137,ribeira grande,38.5167,-28.7,22.1,81,0,2.68,PT,1723086812
138,ashibetsu,43.5097,142.1856,22.66,98,100,0.74,JP,1723086813
139,agnibilekrou,7.1344,-3.2047,21.06,89,100,2.08,CI,1723086814
140,tabou,4.423,-7.3528,23.41,79,100,3.75,CI,1723086815
141,seaside,36.6111,-121.8516,18.3,92,75,3.13,US,1723086786
142,axim,4.8699,-2.2405,22.93,88,100,4.06,GH,1723086817
143,ushuaia,-54.8,-68.3,-0.56,88,100,2.81,AR,1723086679
144,san jose de jachal,-30.2406,-68.7469,3.41,51,99,1.83,AR,1723086819
145,korla,41.7597,86.1469,23.98,40,0,4.65,CN,1723086820
146,smithers,54.7804,-127.1743,24.9,43,32,1.82,CA,1723086821
147,avarua,-21.2078,-159.775,24.03,57,20,4.63,CK,1723086822
148,tual,-5.6667,132.75,25.14,84,62,9.17,ID,1723086823
149,kataysk,56.289,62.5841,13.85,74,72,4.69,RU,1723086824
150,olyokminsk,60.3736,120.4264,24.79,33,10,2.26,RU,1723086826
151,mittagong,-34.45,150.45,16.03,45,0,2.73,AU,1723086827
152,sinabang,2.4803,96.3801,27.19,81,100,1.9,ID,1723086828
153,noshiro,40.2039,140.0242,26.67,66,20,3.22,JP,1723086829
154,port alfred,-33.5906,26.891,14.95,70,0,4.17,ZA,1723086830
155,bischofshofen,47.4167,13.2167,18.63,95,100,1.82,AT,1723086831
156,alofi,-19.0595,-169.9187,23.94,64,75,8.75,NU,1723086832
157,nkhotakota,-12.9274,34.2961,18.85,59,19,2.41,MW,1723086833
158,touros,-5.1989,-35.4608,23.2,85,9,4.75,BR,1723086809
159,punta arenas,-53.15,-70.9167,2.06,80,100,4.63,CL,1723086802
160,petawawa,45.9001,-77.3328,14.77,83,11,1.09,CA,1723086836
161,erbil,36.1926,44.0106,24.9,27,0,2.06,IQ,1723086837
162,colby,39.3958,-101.0524,26.03,65,0,4.63,US,1723086736
163,bilibino,68.0546,166.4372,14.67,37,16,4.8,RU,1723086840
164,karoi,-16.8099,29.6925,12.52,68,0,2.52,ZW,1723086841
165,alupka,44.4167,34.05,20.25,61,3,2.6,UA,1723086842
166,sabang,5.8933,95.3214,28.86,74,100,3.95,ID,1723086843
167,phalodi,27.1333,72.3667,28.01,71,73,7.39,IN,1723086844
168,hilvan,37.5869,38.9551,30.53,38,0,5.14,TR,1723086845
169,talcahuano,-36.7167,-73.1167,5.82,87,0,2.06,CL,1723086843
170,atafu village,-8.5421,-172.5159,28.29,69,2,8.93,TK,1723086762
171,sel'tso,53.3675,34.1,14.34,96,100,1.79,RU,1723086848
172,al jawf,29.5,38.75,23.87,40,1,3.2,SA,1723086849
173,vernon,50.2581,-119.2691,26.27,37,17,0.96,CA,1723086575
174,badger,64.8,-147.5333,25.14,58,75,2.06,US,1723086851
175,taoudenni,22.6783,-3.9836,37.76,9,0,8.7,ML,1723086853
176,novyy urengoy,66.0833,76.6333,10.97,67,97,6.01,RU,1723086854
177,male,4.1748,73.5089,26.99,82,100,10.42,MV,1723086855
178,kencong,-8.2833,113.3667,28.49,64,8,2.3,ID,1723086856
179,puerto ayora,-0.7393,-90.3518,18.64,97,86,4.47,EC,1723086857
180,cidreira,-30.1811,-50.2056,15.72,96,100,2.63,BR,1723086674
181,puerto aysen,-45.4,-72.7,0.48,96,80,1.39,CL,1723086859
182,betio village,1.358,172.9211,31.02,61,4,1.34,KI,1723086860
183,lethem,3.3803,-59.7968,24.54,85,60,1.79,GY,1723086862
184,arkhangel'sk,64.5401,40.5433,11.06,93,0,1.0,RU,1723086863
185,san juan de miraflores,-12.1629,-76.9635,15.65,90,88,2.34,PE,1723086864
186,fale old settlement,-9.3852,-171.2468,27.75,73,94,8.74,TK,1723086866
187,tubarao,-28.4667,-49.0069,16.42,99,100,0.55,BR,1723086867
188,kerikeri,-35.2268,173.9474,14.95,88,85,0.89,NZ,1723086868
189,kruisfontein,-34.0033,24.7314,9.18,85,0,2.69,ZA,1723086869
190,kani keli,-12.9536,45.1033,21.59,71,81,2.27,YT,1723086870
191,sept-iles,50.2001,-66.3821,12.81,81,23,1.79,CA,1723086871
192,revda,56.801,59.9303,11.59,93,73,3.31,RU,1723086872
193,diphu,25.8333,93.4333,27.34,84,100,0.37,IN,1723086873
194,freetown,8.484,-13.2299,24.76,86,99,4.21,SL,1723086874
195,fort bragg,35.139,-79.006,24.91,94,75,7.72,US,1723086875
196,boguchany,58.3814,97.4531,17.82,92,99,2.3,RU,1723086877
197,el hajeb,33.6879,-5.371,19.06,42,12,0.13,MA,1723086878
198,college,64.8569,-147.8028,25.18,60,75,2.06,US,1723086879
199,jinshi,29.6049,111.8701,33.08,55,29,5.4,CN,1723086880
200,pelabuhanratu,-6.9875,106.5514,28.93,68,97,1.48,ID,1723086881
201,uturoa,-16.7333,-151.4333,25.95,83,36,4.68,PF,1723086882
202,richards bay,-28.783,32.0377,16.58,83,36,4.9,ZA,1723086883
203,chos malal,-37.3781,-70.2709,1.57,75,26,0.69,AR,1723086884
204,ceelbuur,4.685,46.6176,23.06,79,100,6.44,SO,1723086885
205,i-n-salah,27.1935,2.4607,32.55,13,0,7.24,DZ,1723086886
206,klyuchi,52.2667,79.1667,22.88,67,99,2.9,RU,1723086887
207,shenjiamen,29.9576,122.298,29.62,74,4,4.95,CN,1723086888
208,bay roberts,47.5999,-53.2648,17.3,82,42,4.93,CA,1723086890
209,al ghayzah,16.2079,52.176,24.88,88,45,1.4,YE,1723086892
210,balabac,7.9868,117.0645,30.09,67,76,2.91,PH,1723086893
211,narva,59.3772,28.1903,12.61,94,0,1.16,EE,1723086894
212,laojunmiao,39.8333,97.7333,17.71,53,95,6.81,CN,1723086895
213,vorgashor,67.5833,63.95,11.03,59,26,1.7,RU,1723086896
214,azul,-36.777,-59.8585,6.31,92,100,9.41,AR,1723086897
215,venice,27.0998,-82.4543,30.01,94,0,4.12,US,1723086770
216,sal'sk,46.4725,41.5428,20.56,67,31,3.05,RU,1723086899
217,okhotsk,59.3833,143.3,18.35,67,13,2.07,RU,1723086900
218,skovorodino,53.9833,123.9167,18.28,86,100,1.57,RU,1723086901
219,fisterra,42.9049,-9.2629,18.9,82,10,8.75,ES,1723086902
220,sikeston,36.8767,-89.5879,22.96,78,40,3.6,US,1723086726
221,sandnessjoen,66.0217,12.6316,17.29,78,95,9.05,NO,1723086905
222,puerto baquerizo moreno,-0.9,-89.6,19.72,79,91,6.0,EC,1723086906
223,opuwo,-18.0607,13.84,16.06,35,0,1.79,NA,1723086907
224,luderitz,-26.6481,15.1594,9.92,83,0,2.68,NA,1723086908
225,kuraymah,18.55,31.85,31.2,54,100,3.37,SD,1723086909
226,aasiaat,68.7098,-52.8699,3.59,94,99,3.42,GL,1723086910
227,tadmur,34.5608,38.2805,25.88,34,0,6.17,SY,1723086911
228,vilyuysk,63.7553,121.6247,19.84,43,8,0.2,RU,1723086912
229,vredendal,-31.6683,18.5012,10.03,94,31,1.85,ZA,1723086913
230,mary,37.0,62.5,30.62,14,0,2.42,TM,1723086914
231,port hedland,-20.3167,118.5667,29.03,16,6,4.12,AU,1723086915
232,nantucket,41.2835,-70.0995,18.08,91,0,3.09,US,1723086911
233,mollendo,-17.0231,-72.0147,14.03,89,68,4.2,PE,1723086919
234,khanty-mansiysk,61.0042,69.0019,13.06,58,0,3.0,RU,1723086920
235,karachayevsk,43.774,41.9142,11.97,91,0,2.43,RU,1723086921
236,manta,-0.95,-80.7333,23.88,78,75,5.14,EC,1723086922
237,bikenibeu village,1.3673,173.1241,30.98,66,75,1.54,KI,1723086923
238,carnarvon,-24.8667,113.6333,20.52,56,4,3.96,AU,1723086924
239,ridgecrest,35.6225,-117.6709,37.92,13,20,6.17,US,1723086787
240,harar,9.3094,42.1258,15.33,83,38,3.18,ET,1723086926
241,anori,-3.7728,-61.6442,25.35,50,66,1.1,BR,1723086928
242,finspang,58.7058,15.7674,16.73,87,100,1.92,SE,1723086929
243,igarka,67.4667,86.5833,14.43,57,1,4.11,RU,1723086931
244,kapoeta,4.7717,33.5903,23.18,74,97,2.89,SS,1723086932
245,suoyarvi,62.0833,32.35,11.05,82,4,2.01,RU,1723086934
246,tazacorte,28.629,-17.9293,23.54,88,20,6.69,ES,1723086935
247,conde,-7.2597,-34.9075,21.7,94,20,2.06,BR,1723086936
248,takoradi,4.8845,-1.7554,22.44,91,100,3.83,GH,1723086921
249,talakan,50.3167,130.3667,26.24,62,18,3.01,RU,1723086938
250,papao,-17.75,-149.55,26.82,78,0,7.62,PF,1723086939
251,port saint john's,-31.6229,29.5448,17.82,32,0,3.09,ZA,1723086940
252,mugla,37.2303,28.3557,20.74,48,0,2.43,TR,1723086941
253,cidade velha,14.9167,-23.6167,25.26,83,75,5.14,CV,1723086943
254,ha'il,27.5219,41.6907,25.01,20,0,2.06,SA,1723086944
255,jalqani,12.4486,34.2186,22.47,93,93,2.39,SD,1723086945
256,aswan,24.0934,32.907,32.27,41,93,1.79,EG,1723086946
257,port lincoln,-34.7333,135.8667,14.93,82,94,7.81,AU,1723086947
258,dundee,56.5,-2.9667,12.91,81,0,8.23,GB,1723086948
259,chonchi,-42.6128,-73.8092,3.95,97,22,0.51,CL,1723086949
260,bambari,5.768,20.6757,20.0,96,92,0.95,CF,1723086950
261,maevatanana,-13.8831,48.5289,17.59,67,48,1.7,MG,1723086951
262,parry sound,45.3501,-80.033,14.04,73,95,1.39,CA,1723086883
263,taitung city,22.7583,121.1444,33.15,70,40,3.6,TW,1723086953
264,boyalik,41.2634,28.6314,21.51,77,0,3.31,TR,1723086955
265,gradacac,44.8808,18.4269,17.34,58,5,1.24,BA,1723086956
266,kipushi,-11.7667,27.2333,12.45,46,10,1.73,CD,1723086957
267,cooma,-36.2333,149.1333,13.8,32,31,3.46,AU,1723086958
268,devils lake,48.1128,-98.8651,14.99,66,0,7.2,US,1723086959
269,rio grande,-32.035,-52.0986,13.86,89,82,3.11,BR,1723086960
270,dryden,49.7833,-92.7503,16.16,82,40,4.12,CA,1723086961
271,walvis bay,-22.9575,14.5053,11.72,89,4,2.59,NA,1723086962
272,cafayate,-26.073,-65.9761,3.81,88,14,2.52,AR,1723086963
273,amparafaravola,-17.5833,48.2167,16.06,72,98,3.9,MG,1723086964
274,burlington,39.8835,-74.6413,20.94,97,100,4.63,US,1723086718
275,dzhetygara,52.1908,61.2006,18.64,87,95,3.4,KZ,1723086968
276,sao miguel do araguaia,-13.275,-50.1628,23.45,30,0,2.14,BR,1723086969
277,new plymouth,-39.0667,174.0833,9.06,100,99,5.0,NZ,1723086970
278,haiku-pauwela,20.9219,-156.3051,27.9,73,20,9.77,US,1723086971
279,barabai,-2.5833,115.3833,30.27,62,100,1.43,ID,1723086972
280,zouerate,22.7187,-12.4521,31.48,20,0,3.36,MR,1723086974
281,norwalk,33.9022,-118.0817,25.21,80,0,3.09,US,1723086975
282,makassar,-5.14,119.4221,31.03,40,20,1.03,ID,1723086908
283,tonj,7.2737,28.6822,21.26,96,100,1.39,SS,1723086977
284,colonia,50.9333,6.95,18.23,86,0,1.54,DE,1723086942
285,northam,51.0333,-4.2167,16.48,93,27,4.86,GB,1723086979
286,belyy yar,53.6039,91.3903,19.94,83,20,1.0,RU,1723086980
287,zilupe,56.3862,28.1217,12.19,94,0,1.9,LV,1723086982
288,ashland,40.8167,-82.2665,21.78,93,0,2.96,US,1723086983
289,faya-largeau,17.9257,19.1043,32.32,48,100,5.87,TD,1723086985
290,muynoq,43.7683,59.0214,34.16,18,79,4.91,UZ,1723086986
291,baranchinskiy,58.1617,59.6991,10.0,93,100,2.79,RU,1723086987
292,tateyama,34.9833,139.8667,28.93,76,20,0.72,JP,1723086988
293,sahaswan,28.0833,78.75,28.92,77,41,5.37,IN,1723086989
294,port-vila,-17.7338,168.3219,22.78,73,75,5.14,VU,1723086990
295,malyn,50.7723,29.2383,17.85,72,88,2.19,UA,1723086991
296,tolanaro,-25.0319,46.9987,21.04,83,75,5.14,MG,1723086992
297,antofagasta,-23.65,-70.4,13.6,72,8,3.06,CL,1723086553
298,zambezi,-13.5432,23.1047,11.97,31,19,2.3,ZM,1723086995
299,khorugh,37.4897,71.553,17.41,28,0,0.3,TJ,1723086996
300,iwanai,42.9744,140.5089,25.92,77,71,2.84,JP,1723086997
301,nagqu,31.5,92.0,8.27,82,99,1.28,CN,1723086998
302,qui nhon,13.7667,109.2333,33.86,52,26,1.77,VN,1723086999
303,fomboni,-12.28,43.7425,24.72,69,11,4.59,KM,1723087000
304,labrador city,52.9463,-66.9114,8.99,87,75,5.36,CA,1723087001
305,verkhnevilyuysk,63.4453,120.3167,20.41,42,6,1.6,RU,1723087002
306,sibut,5.718,19.0739,20.99,98,98,0.35,CF,1723087003
307,kirando,-7.4167,30.6,21.79,44,99,3.55,TZ,1723087004
308,windhoek,-22.5594,17.0832,11.87,24,13,1.99,NA,1723087005
309,cuenca,-2.8833,-78.9833,12.07,94,49,1.17,EC,1723086523
310,severo-yeniseyskiy,60.3725,93.0408,16.2,81,100,1.55,RU,1723087008
311,margate,51.3813,1.3862,14.61,85,41,5.4,GB,1723087010
312,nuriootpa,-34.4833,139.0,13.12,78,100,8.71,AU,1723087011
313,kone,-21.0595,164.8658,23.95,54,90,3.88,NC,1723087012
314,jabor,5.921,169.6434,27.21,78,100,2.27,MH,1723087013
315,palikir - national government center,6.9248,158.1611,31.47,70,40,4.12,FM,1723087014
316,potosi,-19.5836,-65.7531,1.17,16,0,2.94,BO,1723087015
317,tondano,1.3038,124.9112,28.05,59,15,3.27,ID,1723087016
318,dulovo,43.8167,27.15,16.97,72,1,1.29,BG,1723087017
319,arkalyk,50.2486,66.9114,24.7,53,3,3.51,KZ,1723087018
320,bairnsdale,-37.8333,147.6167,16.7,54,100,0.89,AU,1723087020
321,tanumah,27.1,44.1333,28.9,13,91,4.47,SA,1723087021
322,keflavik,64.0049,-22.5624,8.24,100,0,2.06,IS,1723087022
323,kemise,10.7167,39.8667,20.01,78,96,2.09,ET,1723087023
324,lorengau,-2.0226,147.2712,29.72,70,26,3.93,PG,1723087024
325,ille-sur-tet,42.6707,2.6216,24.27,82,13,2.58,FR,1723087025
326,skelleftea,64.7507,20.9528,11.2,100,20,1.03,SE,1723087026
327,katabu,-4.9333,122.5167,30.62,54,29,4.23,ID,1723087027
328,sabzevar,36.2126,57.6819,25.6,25,0,0.0,IR,1723087028
329,ta`u,-14.2336,-169.5144,25.14,77,81,9.7,AS,1723087029
330,alice springs,-23.7,133.8833,25.75,25,0,5.66,AU,1723087031
331,midland,31.9974,-102.0779,35.27,22,0,2.06,US,1723086747
332,utrik,11.2278,169.8474,28.14,78,20,5.93,MH,1723087033
333,gaiman,-43.2897,-65.4929,2.78,71,0,1.17,AR,1723087034
334,east london,-33.0153,27.9116,9.52,71,0,1.54,ZA,1723087035
335,kingston,17.997,-76.7936,27.87,84,100,1.47,JM,1723086611
336,immokalee,26.4187,-81.4173,29.39,100,0,1.54,US,1723087037
337,labytnangi,66.6572,66.4183,11.8,64,13,0.52,RU,1723087038
338,ola,59.5833,151.2833,14.16,79,46,3.28,RU,1723087039
339,geraldton,-28.7667,114.6,18.23,77,75,2.57,AU,1723086896
340,puma,-5.0,34.7333,13.83,83,13,5.08,TZ,1723087041
341,privolzhsk,57.3808,41.2886,14.04,96,52,2.5,RU,1723087043
342,at taj,24.2049,23.2857,28.08,20,8,4.88,LY,1723087044
343,new norfolk,-42.7826,147.0587,14.4,58,100,3.73,AU,1723087045
344,toliara,-23.35,43.6667,19.49,69,0,1.7,MG,1723087046
345,hirara,24.8,125.2833,28.92,94,75,3.09,JP,1723087047
346,la passe,45.5549,-0.8967,16.13,84,84,3.24,FR,1723087048
347,marsa alam,25.0757,34.8918,30.81,62,40,2.88,EG,1723087049
348,alghero,40.5589,8.3181,20.05,94,0,1.03,IT,1723087050
349,vadso,70.0744,29.7487,13.49,71,0,1.54,NO,1723087051
350,krasnoshchekovo,51.6708,82.7289,19.26,82,100,2.35,RU,1723087052
351,sorong,-0.8833,131.25,29.47,68,51,5.11,ID,1723087053
352,knysna,-34.0363,23.0471,10.9,83,3,1.58,ZA,1723087054
353,afaahiti,-17.75,-149.2833,25.93,82,6,7.77,PF,1723087057
354,hasaki,35.7333,140.8333,31.27,75,38,3.38,JP,1723087058
355,sao paulo de olivenca,-3.3783,-68.8725,24.54,67,0,1.22,BR,1723087059
356,barrouallie,13.2333,-61.2667,25.41,79,18,3.25,VC,1723087060
357,ulverstone,-41.15,146.1667,13.73,83,100,6.62,AU,1723087061
358,san antonio de pale,-1.4014,5.6325,22.65,82,100,5.61,GQ,1723087062
359,baiti,13.745,-14.7482,23.94,97,99,2.43,SN,1723087063
360,tete,-16.1564,33.5867,14.05,77,0,0.0,MZ,1723087064
361,saldanha,-33.0117,17.9442,12.03,87,100,4.77,ZA,1723087065
362,ar ruways,24.1103,52.7306,33.38,52,60,2.13,AE,1723087066
363,ixtapa,20.7,-105.2,29.57,74,75,2.06,MX,1723087067
364,karratha,-20.7377,116.8463,26.61,25,15,4.43,AU,1723087069
365,sarupathar,26.1984,93.8094,26.97,93,100,2.16,IN,1723087070
366,kyabe,9.4515,18.9449,22.5,96,100,2.21,TD,1723087071
367,shimanovsk,52.0,127.7,22.82,68,97,0.58,RU,1723087072
368,jiaozuo,35.2397,113.2331,28.05,80,93,2.84,CN,1723087073
369,minusinsk,53.7103,91.6875,20.01,82,100,1.34,RU,1723087074
370,dudinka,69.4058,86.1778,13.84,49,10,9.78,RU,1723087075
371,barda,40.3744,47.1267,24.6,66,26,0.77,AZ,1723087076
372,cabedelo,-6.9811,-34.8339,22.37,72,99,5.25,BR,1723087077
373,selfoss,63.9331,-20.9971,10.02,94,2,1.46,IS,1723087078
374,whitehorse,60.7161,-135.0538,27.79,30,0,5.36,CA,1723086809
375,sundargarh,22.1167,84.0333,25.48,91,100,2.77,IN,1723087080
376,oujda-angad,34.6805,-1.9076,23.35,83,40,5.14,MA,1723087082
377,haimen,23.1935,116.6142,33.94,70,19,4.76,CN,1723087084
378,lebu,-37.6167,-73.65,6.04,90,8,3.07,CL,1723086863
379,guajara mirim,-10.7828,-65.3394,27.31,53,51,0.53,BR,1723087087
380,aripuana,-9.1667,-60.6333,23.01,48,3,0.7,BR,1723087088
381,presidente medici,-11.1753,-61.9014,25.76,44,8,1.29,BR,1723087089
382,yokadouma,3.5167,15.05,21.38,87,100,0.98,CM,1723087090
383,zakamensk,50.3741,103.2863,21.91,55,19,0.7,RU,1723087091
384,novominskaya,46.3163,38.9586,21.11,72,2,2.41,RU,1723087092
385,lata,40.1629,-8.3327,13.07,97,24,0.44,PT,1723087093
386,wainwright,52.839,-110.8572,14.83,63,100,1.93,CA,1723087095
387,mayskiy,47.6931,40.1025,16.67,50,38,1.49,RU,1723087096
388,mananara,-16.1667,49.7667,20.03,77,77,2.43,MG,1723087097
389,ketchikan,55.3422,-131.6461,23.26,46,0,2.57,US,1723087099
390,cernavoda,44.3667,28.0167,16.69,71,3,0.1,RO,1723087100
391,greer,34.9387,-82.2271,26.69,79,0,4.63,US,1723087101
392,sao jose da coroa grande,-8.8978,-35.1478,24.84,71,88,3.57,BR,1723087102
393,usogorsk,63.4106,48.6872,12.82,59,8,2.23,RU,1723087103
394,bokovskaya,49.229,41.8306,20.21,57,10,2.31,RU,1723087104
395,mugia,43.1041,-9.2179,18.98,83,36,8.94,ES,1723087105
396,udachny,66.4167,112.4,22.6,47,100,9.12,RU,1723087106
397,timimoun,29.2639,0.231,33.21,16,0,8.23,DZ,1723087108
398,mubi,10.2676,13.2644,21.35,90,95,2.47,NG,1723087109
399,port hueneme,34.1478,-119.1951,24.03,86,100,3.09,US,1723087110
400,eldorado at santa fe,35.5264,-105.9347,24.23,40,12,1.34,US,1723087111
401,constantia,44.1833,28.65,16.5,75,0,1.42,RO,1723086974
402,timbuktu,16.7735,-3.0074,30.18,61,100,10.22,ML,1723087114
403,hilo,19.7297,-155.09,27.85,78,20,3.6,US,1723087115
404,happy valley-goose bay,53.3168,-60.3315,12.17,94,75,3.09,CA,1723087116
405,tazovsky,67.4667,78.7,9.65,70,52,5.5,RU,1723087117
406,kapuskasing,49.4169,-82.4331,17.05,72,100,1.54,CA,1723087118
407,nadi,-17.8,177.4167,26.0,50,40,7.2,FJ,1723087119
408,port augusta,-32.5,137.7667,14.45,63,96,8.02,AU,1723087121
409,hobyo,5.3505,48.5268,23.85,85,96,8.39,SO,1723087122
410,shira,54.4911,89.9531,15.73,94,100,2.23,RU,1723087123
411,thunder bay,48.4001,-89.3168,16.99,94,100,3.6,CA,1723086984
412,yuzhno-kurilsk,44.0306,145.8556,18.22,99,100,1.65,RU,1723087125
413,juneau,58.3019,-134.4197,23.39,100,0,3.6,US,1723086870
414,mazatlan,23.2167,-106.4167,29.98,75,75,2.57,MX,1723087127
415,howard springs,-12.497,131.047,31.95,40,100,4.8,AU,1723087128
416,chone,-0.6833,-80.1,22.21,89,82,1.58,EC,1723087129
417,altai,46.3722,96.2583,17.63,34,100,2.59,MN,1723087130
418,balykshi,47.0667,51.8667,25.0,53,40,0.0,KZ,1723087131
419,shiyan,32.6475,110.7781,31.34,91,100,1.63,CN,1723086896
420,gamba,-2.65,10.0,21.92,89,99,0.8,GA,1723087133
421,salekhard,66.53,66.6019,11.75,63,15,1.79,RU,1723087135
422,novokuznetsk,53.7557,87.1099,17.35,96,100,3.62,RU,1723087136
423,remire-montjoly,4.9167,-52.2667,26.02,94,0,1.54,GF,1723087137
424,ingeniero guillermo n. juarez,-23.9,-61.85,12.17,63,16,3.38,AR,1723087138
425,nadym,65.5333,72.5167,10.78,68,96,5.52,RU,1723087139
426,impfondo,1.6381,18.0667,23.23,70,98,1.4,CG,1723087140
427,prainha,-1.8,-53.48,25.09,71,0,1.33,BR,1723087141
428,nabire,-3.3667,135.4833,28.2,73,91,2.03,ID,1723087142
429,pangody,65.85,74.4859,9.66,71,100,4.79,RU,1723087143
430,umm ruwaba,12.9061,31.2158,25.28,77,95,3.86,SD,1723087144
431,owando,-0.4819,15.8999,24.46,54,100,2.23,CG,1723087145
432,katsuren-haebaru,26.3369,127.8719,33.01,73,75,4.63,JP,1723087147
433,lengshuitan,26.4111,111.5956,34.96,45,4,6.78,CN,1723087148
434,buffalo,42.8865,-78.8784,19.45,78,20,3.6,US,1723087063
435,barysh,53.6553,47.1123,19.22,67,59,1.14,RU,1723087150
436,mejit,10.2753,170.8646,27.69,76,94,3.75,MH,1723087151
437,pemangkat,1.1667,108.9667,28.78,66,25,0.38,ID,1723087152
438,preobrazheniye,42.9019,133.9064,26.69,72,99,2.36,RU,1723087154
439,kenai,60.5544,-151.2583,15.05,100,100,2.57,US,1723087156
440,codrington,-38.2667,141.9667,13.53,63,100,9.11,AU,1723087157
441,ploudalmezeau,48.5333,-4.65,16.27,94,100,3.6,FR,1723087158
442,el bauga,18.262,33.9081,26.92,71,69,3.44,SD,1723087159
443,magistral'nyy,56.1725,107.4458,22.27,52,52,2.39,RU,1723087160
444,brezina,33.0989,1.2608,27.31,26,0,1.17,DZ,1723087161
445,lihue,21.9789,-159.3672,27.77,67,0,6.69,US,1723087162
446,vung tau,10.346,107.0843,27.97,76,52,4.49,VN,1723087163
447,aykhal,66.0,111.5,21.95,50,100,9.25,RU,1723087164
448,kailua-kona,19.6406,-155.9956,28.98,81,75,3.6,US,1723087165
449,glace bay,46.1969,-59.957,17.1,89,40,3.6,CA,1723087166
450,westport,41.1415,-73.3579,19.3,87,100,3.6,US,1723087167
451,akureyri,65.6835,-18.0878,7.96,93,100,1.54,IS,1723087168
452,peace river,56.2501,-117.286,21.17,68,0,1.03,CA,1723087170
453,damaturu,11.747,11.9608,22.86,91,100,4.37,NG,1723087171
454,yilan,24.757,121.753,32.96,64,96,1.86,TW,1723087172
455,kununurra,-15.7667,128.7333,31.99,23,2,5.66,AU,1723087173
456,marsh harbour,26.5412,-77.0636,28.22,78,25,5.73,BS,1723087174
457,harper,4.375,-7.7169,23.42,79,100,3.96,LR,1723087175
458,kiruna,67.8557,20.2251,9.51,87,0,0.0,SE,1723087176
459,alaghsas,17.0187,8.0168,27.32,59,46,3.2,NE,1723087177
460,pisco,-13.7,-76.2167,16.03,82,100,2.06,PE,1723087178
461,farafangana,-22.8167,47.8333,20.45,88,74,2.95,MG,1723087180
462,hatillo,18.4863,-66.8254,27.1,82,4,3.58,PR,1723087181
463,qamdo,31.1667,97.2333,15.86,49,100,2.12,CN,1723087182
464,paradip garh,20.3167,86.6167,29.11,73,100,3.36,IN,1723087183
465,inverell,-29.7833,151.1167,20.93,49,1,1.79,AU,1723087184
466,chios,38.3678,26.1358,24.92,61,0,5.14,GR,1723087185
467,dwarka,22.2394,68.9678,27.77,83,97,9.66,IN,1723087186
468,paphos,34.7667,32.4167,23.88,50,0,3.6,CY,1723087037
469,long beach,33.767,-118.1892,23.47,87,20,3.6,US,1723087188
470,novyy urgal,51.0736,132.5642,28.87,42,8,0.5,RU,1723087189
471,shatrovo,56.5167,64.6333,13.0,73,98,3.98,RU,1723087190
472,anna regina,7.2644,-58.5077,26.59,81,3,2.21,GY,1723087191
473,mana,5.6592,-53.7767,25.16,91,78,3.66,GF,1723087193
474,les anglais,18.3054,-74.2197,25.77,85,100,2.75,HT,1723087194
475,sosua,19.7667,-70.5167,26.95,83,40,3.09,DO,1723087195
476,toulepleu guere,6.574,-8.4259,20.88,93,100,1.27,CI,1723087196
477,qa'en,33.7265,59.1844,24.78,18,0,3.38,IR,1723087197
478,fukuyama,34.4833,133.3667,36.0,43,0,3.33,JP,1723087198
479,xam nua,20.4197,104.0439,28.89,51,5,1.61,LA,1723087199
480,carletonville,-26.3609,27.3977,9.91,44,0,3.36,ZA,1723086920
481,kachug,53.9606,105.8817,22.5,52,53,0.42,RU,1723087201
482,kristinestad,62.2743,21.376,11.17,85,24,2.68,FI,1723087202
483,darwin,-12.4611,130.8418,31.99,28,0,5.66,AU,1723087154
484,saint-pierre,-21.3393,55.4781,18.82,63,0,3.09,RE,1723087204
485,amvrosiyivka,47.7935,38.4777,18.52,66,7,3.35,UA,1723087206
486,yashkul',46.1711,45.3435,24.29,52,1,5.02,RU,1723087207
487,dahab,28.501,34.5134,30.79,37,0,3.71,EG,1723087208
488,carutapera,-1.195,-46.02,24.55,86,78,2.32,BR,1723087209
489,kharabali,47.4196,47.2568,24.6,54,100,1.54,RU,1723087211
490,marabba,12.35,32.1833,24.88,82,94,4.26,SD,1723087212
491,lewiston,44.1003,-70.2148,16.92,87,0,0.0,US,1723087213
492,plastun,44.7561,136.2939,28.28,59,37,2.3,RU,1723087214
493,whakatane,-37.9585,176.9854,13.82,96,100,1.34,NZ,1723087215
494,saipan,15.1355,145.701,32.39,70,40,2.06,MP,1723087216
495,nuuk,64.1835,-51.7216,4.34,100,100,3.6,GL,1723087217
496,gereida,11.2811,25.1414,23.8,84,100,4.13,SD,1723087219
497,shimoda,34.6667,138.95,30.2,77,28,2.67,JP,1723087220
498,ankang,32.68,109.0172,30.89,74,94,1.4,CN,1723087222
499,suntar,62.1444,117.6319,22.59,36,39,2.4,RU,1723087223
500,north bend,43.4065,-124.2243,17.37,94,100,6.69,US,1723087224
501,mossel bay,-34.1831,22.146,7.96,88,2,1.56,ZA,1723087159
502,quillota,-32.8833,-71.2667,7.01,91,5,1.25,CL,1723086967
503,cabo san lucas,22.8909,-109.9124,29.78,74,20,4.12,MX,1723087156
504,rabaul,-4.1967,152.1721,29.49,68,83,5.74,PG,1723087228
505,settat,33.0007,-7.6204,18.9,77,1,1.6,MA,1723087229
506,malango,-2.9627,119.9001,26.75,58,34,2.18,ID,1723087231
507,atbasar,51.8,68.3333,20.67,79,56,1.41,KZ,1723087232
508,segezha,63.7415,34.3222,10.42,77,29,2.26,RU,1723087234
509,voi,-3.3945,38.563,20.5,76,91,4.26,KE,1723087235
510,auki,-8.7676,160.7034,26.93,86,100,2.46,SB,1723087236
511,plainview,40.7765,-73.4673,19.72,91,100,2.57,US,1723086949
512,aras-asan,8.8908,126.3033,30.01,66,100,2.64,PH,1723087238
513,acarau,-2.8856,-40.12,25.5,85,16,7.45,BR,1723087239
514,puerto maldonado,-12.6,-69.1833,24.89,74,69,0.2,PE,1723087161
515,gilgit,35.9221,74.3087,26.13,51,7,1.13,PK,1723087242
516,kirensk,57.7853,108.1119,22.73,54,65,4.67,RU,1723087243
517,el granada,37.5027,-122.4694,20.62,81,48,0.45,US,1723087244
518,bodaybo,57.8506,114.1933,26.79,47,26,0.43,RU,1723087245
519,portland,45.5234,-122.6762,28.62,51,75,5.14,US,1723087168
520,mitu,1.1983,-70.1733,23.41,89,85,1.0,CO,1723087247
521,sur,22.5667,59.5289,29.31,69,32,1.89,OM,1723087248
522,chamical,-30.36,-66.314,8.96,36,98,7.97,AR,1723087249
523,solleftea,63.1667,17.2667,15.92,91,100,1.67,SE,1723087250
524,cheremshan,54.6667,51.5,17.86,83,19,1.31,RU,1723087251
525,xilin hot,43.9667,116.0333,28.49,32,100,1.99,CN,1723087252
526,bangar,16.8936,120.4243,30.08,73,100,4.75,PH,1723087253
527,mkushi,-13.6202,29.3939,11.8,62,9,2.09,ZM,1723087255
528,pachino,36.7186,15.0907,27.34,69,0,1.07,IT,1723087256
529,ofunato,39.0717,141.7167,26.85,79,66,1.9,JP,1723087257
530,flying fish cove,-10.4217,105.6791,26.82,73,40,7.72,CX,1723087258
531,ponta delgada,37.7333,-25.6667,23.4,88,75,2.06,PT,1723087260
532,kanniyakumari,8.0833,77.5667,27.77,72,86,6.98,IN,1723087263
533,chul'man,56.8479,124.9104,22.31,45,4,3.39,RU,1723087264
534,chegdomyn,51.1167,133.0167,30.32,38,3,1.13,RU,1723087265
535,yaren,-0.5472,166.916,28.58,72,65,3.77,NR,1723087268
536,saint-francois,46.4154,3.9054,16.69,95,100,0.0,FR,1723087269
537,tofol,5.3248,163.0078,28.96,71,54,4.24,FM,1723087270
538,byron center,42.8122,-85.7228,18.63,77,40,2.06,US,1723087142
539,veracruz,19.3333,-96.6667,22.47,97,97,0.86,MX,1723087272
540,fortuna,40.5982,-124.1573,14.4,92,100,3.09,US,1723087273
541,luena,-11.7833,19.9167,13.01,27,24,2.02,AO,1723087274
542,storm lake,42.6411,-95.2097,20.58,94,0,2.57,US,1723087275
543,ust'-kulom,61.6864,53.6902,11.01,73,1,2.7,RU,1723087276
544,trebon,49.0036,14.7707,19.47,99,100,1.76,CZ,1723087277
545,choibalsan,48.0667,114.5,24.42,50,100,2.43,MN,1723087278
546,petoskey,45.3733,-84.9553,19.91,72,0,2.06,US,1723087243
547,bandarbeyla,9.4942,50.8122,25.79,72,32,11.54,SO,1723087282
548,kokoda,-8.8785,147.7407,25.0,91,100,1.32,PG,1723087283
549,mount pearl,47.5166,-52.7813,16.64,90,0,8.75,CA,1723087284
550,flin flon,54.7682,-101.865,15.11,46,100,4.0,CA,1723087285
551,as sulayyil,20.4607,45.5779,32.14,28,25,5.11,SA,1723087286
552,waddan,29.1614,16.139,30.21,24,5,5.32,LY,1723087287
553,kisolon,8.33,124.9769,30.26,57,100,0.29,PH,1723087288
554,kolonia town,6.964,158.206,32.06,70,40,4.12,FM,1723087289
555,llucmajor,39.4909,2.8911,24.87,74,0,3.09,ES,1723087290
556,ghat,24.9647,10.1728,29.8,15,4,1.57,LY,1723087291
557,tadine,-21.55,167.8833,22.1,57,100,5.66,NC,1723087293
558,sao raimundo das mangabeiras,-7.0219,-45.4811,23.15,40,1,1.39,BR,1723087294
559,punta del este,-34.9667,-54.95,10.49,88,20,5.81,UY,1723087002
560,antonio enes,-16.2325,39.9086,20.26,85,2,1.57,MZ,1723087296
561,dunedin,-45.8742,170.5036,8.78,84,100,2.24,NZ,1723087297
562,xai-xai,-25.0519,33.6442,16.08,96,7,3.38,MZ,1723087298
563,usinsk,65.9939,57.5281,13.18,56,7,4.08,RU,1723087299
564,bolgar,54.95,49.0667,18.92,80,99,4.24,RU,1723087300
565,machico,32.7,-16.7667,23.35,73,40,6.69,PT,1723087301
566,galle,6.0367,80.217,29.4,81,53,0.45,LK,1723087302
567,coquimbo,-29.9533,-71.3436,11.85,72,100,1.03,CL,1723087019
568,chinde,26.8212,87.7095,26.36,82,99,1.01,NP,1723087304
569,enterprise,36.0252,-115.2419,36.8,31,0,6.69,US,1723087306
570,zhumysker,49.3333,49.4,23.86,59,18,1.93,KZ,1723087307
571,ghadamis,30.1337,9.5007,27.18,60,0,3.52,LY,1723087308
572,batticaloa,7.7102,81.6924,28.77,71,57,0.58,LK,1723087309
573,sitia,35.2,26.0986,28.32,69,0,8.01,GR,1723087310
574,antsiranana,-12.2787,49.2917,21.42,64,20,7.2,MG,1723087311
575,altay,47.8667,88.1167,24.87,29,1,2.72,CN,1723087312
576,bondo,3.8146,23.6866,20.03,90,90,1.41,CD,1723087313
577,boa vista,2.8197,-60.6733,25.99,83,40,3.09,BR,1723087314
578,ballina,-28.8667,153.5667,19.32,50,28,4.62,AU,1723087315
