City_ID,City,Lat,Lng,Max Temp,Humidity,Cloudiness,Wind Speed,Country,Date
0,port elizabeth,-33.918,25.5701,10.17,88,0,2.87,ZA,1723000467
1,udachny,66.4167,112.4,14.56,48,46,1.2,RU,1723000468
2,kapuskasing,49.4169,-82.4331,10.91,79,34,0.82,CA,1723000202
3,port alfred,-33.5906,26.891,13.1,68,0,3.62,ZA,1723000471
4,vanimo,-2.6741,141.3028,28.42,78,98,3.8,PG,1723000472
5,blackmans bay,-43.0167,147.3167,14.18,55,100,2.71,AU,1723000473
6,weno,7.4515,151.8468,30.97,70,100,1.54,FM,1723000474
7,adrar,20.5022,-10.0711,32.17,34,14,5.12,MR,1723000475
8,bethel,41.3712,-73.414,21.44,89,100,0.89,US,1723000476
9,cannonvale,-20.2833,148.7,24.77,69,5,5.63,AU,1723000477
10,waitangi,-43.9535,-176.5597,11.01,77,0,0.89,NZ,1723000478
11,buka,40.8108,69.1986,28.52,21,0,4.59,UZ,1723000479
12,kaihua,23.3687,104.28,23.14,78,79,2.7,CN,1723000480
13,kayangel,8.0823,134.7173,29.03,73,74,4.39,PW,1723000481
14,bredasdorp,-34.5322,20.0403,8.4,91,17,1.41,ZA,1723000482
15,iqaluit,63.7506,-68.5145,7.61,75,93,1.34,CA,1723000485
16,vorgashor,67.5833,63.95,10.51,56,10,4.49,RU,1723000486
17,puerto natales,-51.7236,-72.4875,-2.23,91,100,1.28,CL,1723000487
18,saipan,15.1355,145.701,29.39,84,75,1.54,MP,1723000307
19,otradnaya,44.3933,41.5206,19.41,81,100,1.16,RU,1723000489
20,yellowknife,62.456,-114.3525,19.67,49,9,4.02,CA,1723000490
21,longyearbyen,78.2186,15.6401,9.91,87,75,0.51,SJ,1723000491
22,st. john's,47.5649,-52.7093,16.27,92,100,0.45,CA,1723000492
23,baranchinskiy,58.1617,59.6991,11.43,96,100,2.34,RU,1723000494
24,kodiak,57.79,-152.4072,12.73,94,100,6.17,US,1723000495
25,bamboo flat,11.7,92.7167,28.05,89,100,1.03,IN,1723000496
26,yeppoon,-23.1333,150.7333,21.88,88,96,5.63,AU,1723000497
27,tazovsky,67.4667,78.7,9.53,71,3,6.89,RU,1723000498
28,ust-nera,64.5667,143.2,11.32,82,100,2.15,RU,1723000499
29,saint-francois,46.4154,3.9054,20.69,86,0,0.51,FR,1723000500
30,prince rupert,54.3161,-130.3201,14.83,100,100,3.09,CA,1723000501
31,westport,41.1415,-73.3579,22.31,89,100,6.17,US,1723000503
32,port mathurin,-19.6833,63.4167,22.46,73,39,3.69,MU,1723000504
33,la ronge,55.1001,-105.2842,11.95,66,16,3.25,CA,1723000505
34,ponta delgada,37.7333,-25.6667,22.4,88,20,4.12,PT,1723000507
35,margaret river,-33.95,115.0667,15.25,61,82,8.86,AU,1723000508
36,georgetown,5.4112,100.3354,29.96,70,20,1.54,MY,1723000509
37,labrador city,52.9463,-66.9114,8.99,82,100,4.92,CA,1723000274
38,abbeville,50.1,1.8333,16.98,94,80,3.04,FR,1723000511
39,ibarreta,-25.2144,-59.8585,19.61,93,84,2.93,AR,1723000441
40,launceston,-41.45,147.1667,14.8,67,40,7.2,AU,1723000513
41,hammerfest,70.6634,23.6821,16.25,72,1,1.03,NO,1723000514
42,dubbo,-32.25,148.6167,15.07,47,10,3.6,AU,1723000515
43,klyuchi,52.2667,79.1667,21.53,69,100,1.88,RU,1723000517
44,adamstown,-25.066,-130.1015,18.62,66,43,5.01,PN,1723000518
45,grytviken,-54.2811,-36.5092,-8.43,67,64,2.56,GS,1723000519
46,bubaque,11.2833,-15.8333,26.42,83,100,6.44,GW,1723000520
47,balnearia,-31.0088,-62.6673,10.22,73,3,6.27,AR,1723000486
48,shipunovo,52.1582,82.2173,21.48,66,98,3.39,RU,1723000522
49,port-aux-francais,-49.35,70.2167,2.41,89,79,7.76,TF,1723000523
50,edinburgh of the seven seas,-37.0676,-12.3116,9.61,60,7,7.04,SH,1723000524
51,undurkhaan,47.3194,110.6556,23.47,51,46,1.53,MN,1723000525
52,jayapura,-2.5333,140.7,30.66,81,98,2.46,ID,1723000526
53,puerto ayora,-0.7393,-90.3518,19.75,92,83,1.34,EC,1723000528
54,blagoveshchenka,52.8333,79.8667,18.08,90,97,3.14,RU,1723000530
55,tiksi,71.6872,128.8694,10.06,81,97,4.63,RU,1723000531
56,ushuaia,-54.8,-68.3,-4.6,92,100,1.41,AR,1723000532
57,fuyuan,46.4333,127.0833,27.03,71,60,2.74,CN,1723000533
58,saba,15.4667,-86.25,24.73,99,84,0.76,HN,1723000534
59,west island,-12.1568,96.8225,27.99,65,2,5.66,CC,1723000535
60,aripuana,-9.1667,-60.6333,23.74,43,83,1.17,BR,1723000536
61,nova vicosa,-17.8919,-39.3719,22.44,73,30,2.78,BR,1723000537
62,bilibino,68.0546,166.4372,12.15,42,23,2.02,RU,1723000538
63,bougouni,11.417,-7.479,22.3,97,100,2.67,ML,1723000539
64,bonthe,7.5264,-12.505,25.04,82,99,3.3,SL,1723000540
65,alaghsas,17.0187,8.0168,27.98,61,27,6.13,NE,1723000541
66,anadyr,64.75,177.4833,10.0,61,75,5.0,RU,1723000543
67,hamilton,39.1834,-84.5333,27.58,85,40,2.06,US,1723000544
68,colonia,50.9333,6.95,19.12,83,41,1.14,DE,1723000545
69,nova sintra,14.8667,-24.7167,25.71,85,100,7.26,CV,1723000546
70,paracuru,-3.41,-39.0306,26.73,80,7,6.01,BR,1723000547
71,wahpeton,46.2652,-96.6059,18.4,100,0,3.09,US,1723000548
72,avarua,-21.2078,-159.775,24.03,83,75,3.6,CK,1723000549
73,hudson,40.7168,-74.0663,23.18,94,100,3.09,US,1723000464
74,ashland,40.8167,-82.2665,21.04,98,94,2.85,US,1723000551
75,pisco,-13.7,-76.2167,15.01,88,2,1.54,PE,1723000433
76,trairi,-3.2778,-39.2689,25.1,83,13,4.78,BR,1723000275
77,chokwe,-24.5333,32.9833,14.85,88,0,1.41,MZ,1723000554
78,utrik,11.2278,169.8474,28.56,78,49,5.29,MH,1723000555
79,port lincoln,-34.7333,135.8667,16.46,52,16,6.58,AU,1723000557
80,mabaruma,8.2,-59.7833,23.32,92,0,0.51,GY,1723000558
81,balaklava,44.5,33.6,21.88,55,96,3.88,UA,1723000559
82,zouerate,22.7187,-12.4521,30.84,21,4,2.91,MR,1723000560
83,sao jose da coroa grande,-8.8978,-35.1478,23.86,77,3,4.43,BR,1723000561
84,sinjai,-5.1241,120.253,27.46,75,17,4.41,ID,1723000562
85,vilhena,-12.7406,-60.1458,20.57,42,4,1.89,BR,1723000372
86,nemuro,43.3236,145.575,18.94,99,100,3.67,JP,1723000564
87,yefremov,53.1481,38.0992,16.33,82,59,1.42,RU,1723000565
88,mikuni,36.2171,136.1519,27.2,78,48,4.78,JP,1723000566
89,college,64.8569,-147.8028,22.99,61,75,2.57,US,1723000567
90,fort bragg,35.139,-79.006,24.08,96,100,3.6,US,1723000568
91,labasa,-16.4167,179.3833,25.49,53,5,5.13,FJ,1723000570
92,likiep,9.8251,169.3107,28.79,75,55,4.71,MH,1723000571
93,albany,42.6001,-73.9662,18.12,79,100,1.81,US,1723000495
94,sao joao da barra,-21.6403,-41.0511,23.09,82,0,10.86,BR,1723000573
95,dudinka,69.4058,86.1778,13.23,50,0,11.28,RU,1723000574
96,polyarnyy,69.1989,33.4478,12.36,60,52,3.89,RU,1723000575
97,nagqu,31.5,92.0,12.9,55,100,4.84,CN,1723000576
98,mariehamn,60.0973,19.9348,17.12,100,100,1.03,AX,1723000577
99,lerwick,60.1545,-1.1494,13.0,90,10,6.28,GB,1723000578
100,santa ana,33.7456,-117.8678,28.87,75,20,3.09,US,1723000579
101,ilulissat,69.2167,-51.1,5.01,93,20,1.54,GL,1723000580
102,invercargill,-46.4,168.35,12.23,69,100,2.68,NZ,1723000581
103,conception bay south,47.4999,-52.9981,16.14,92,100,5.71,CA,1723000506
104,santa cruz del sur,20.7147,-77.9956,26.08,88,92,3.54,CU,1723000584
105,san antonio de pale,-1.4014,5.6325,22.32,81,91,5.92,GQ,1723000585
106,okha,53.5739,142.9478,17.93,77,73,6.33,RU,1723000586
107,tutoia,-2.7619,-42.2744,25.36,84,4,4.64,BR,1723000337
108,turpan,42.9333,89.1667,33.8,22,98,6.78,CN,1723000372
109,ebon,4.582,168.6964,28.23,69,99,1.19,MH,1723000589
110,mount pearl,47.5166,-52.7813,15.81,92,75,5.66,CA,1723000590
111,toyoshina,36.2999,137.9011,32.43,68,75,2.57,JP,1723000591
112,chimore,-16.9833,-65.1333,21.44,99,93,0.52,BO,1723000592
113,sabang,5.8933,95.3214,27.95,79,100,9.07,ID,1723000594
114,mossel bay,-34.1831,22.146,6.96,77,2,2.67,ZA,1723000596
115,lazaro cardenas,17.9583,-102.2,28.21,74,100,1.33,MX,1723000597
116,hawaiian paradise park,19.5933,-154.9731,27.73,71,40,3.09,US,1723000599
117,uturoa,-16.7333,-151.4333,26.07,85,4,7.79,PF,1723000600
118,nantucket,41.2835,-70.0995,19.08,100,100,3.6,US,1723000316
119,sovetskiy,61.3614,63.5842,12.0,64,89,3.78,RU,1723000602
120,boryeong,36.3493,126.5977,31.98,69,6,2.34,KR,1723000603
121,ribeira grande,38.5167,-28.7,23.21,88,12,0.89,PT,1723000604
122,itaituba,-4.2761,-55.9836,27.26,43,84,0.82,BR,1723000605
123,taltal,-25.4,-70.4833,13.46,81,0,0.75,CL,1723000606
124,wailua homesteads,22.0669,-159.378,27.44,68,20,7.72,US,1723000607
125,aasiaat,68.7098,-52.8699,3.52,94,97,3.15,GL,1723000608
126,sitka,57.0531,-135.33,16.94,77,0,4.63,US,1723000610
127,chibougamau,49.9168,-74.3659,10.79,62,0,4.63,CA,1723000611
128,mudurnu,40.473,31.2076,14.3,65,0,1.51,TR,1723000612
129,vadso,70.0744,29.7487,13.49,82,0,1.03,NO,1723000613
130,dalandzadgad,43.5708,104.425,29.46,30,42,8.98,MN,1723000614
131,kubinka,55.5839,36.69,15.0,93,64,1.22,RU,1723000615
132,iwanai,42.9744,140.5089,25.07,89,73,1.68,JP,1723000616
133,rawalpindi,33.6007,73.0679,27.91,79,89,1.79,PK,1723000617
134,papatowai,-46.5619,169.4708,11.85,62,100,2.29,NZ,1723000618
135,baotou,40.6522,109.8222,26.44,48,22,3.63,CN,1723000619
136,persianovka,47.5297,39.4183,17.36,63,95,2.54,RU,1723000620
137,ivolginsk,51.7492,107.2837,21.81,60,40,2.0,RU,1723000621
138,caxito,-8.5785,13.6643,19.02,96,46,0.76,AO,1723000623
139,mount gambier,-37.8333,140.7667,15.47,54,7,4.61,AU,1723000624
140,crane,31.3974,-102.3501,32.42,25,0,3.64,US,1723000625
141,alice springs,-23.7,133.8833,21.75,33,0,3.09,AU,1723000626
142,weiser,44.251,-116.9693,32.4,24,2,5.07,US,1723000627
143,hongqiao,26.7684,112.1081,34.24,53,2,4.13,CN,1723000628
144,tralee,52.2704,-9.7026,13.45,92,92,4.96,IE,1723000629
145,dryden,49.7833,-92.7503,19.16,55,100,2.06,CA,1723000616
146,ta`u,-14.2336,-169.5144,25.76,79,36,6.41,AS,1723000631
147,whitehorse,60.7161,-135.0538,27.43,25,0,6.17,CA,1723000632
148,vondrozo,-22.8167,47.2833,16.43,91,91,0.7,MG,1723000633
149,uruzgan,32.8333,66.0,28.57,10,0,1.64,AF,1723000634
150,happy valley-goose bay,53.3168,-60.3315,13.17,67,40,4.12,CA,1723000636
151,velyka dymerka,50.5918,30.9011,18.78,97,100,2.05,UA,1723000637
152,kingston,17.997,-76.7936,29.53,84,20,3.6,JM,1722999858
153,hilo,19.7297,-155.09,27.85,70,40,3.09,US,1723000639
154,kidal,18.4411,1.4078,27.83,53,23,5.69,ML,1723000640
155,praia da vitoria,38.7333,-27.0667,22.14,88,20,2.63,PT,1723000641
156,olonkinbyen,70.9221,-8.7187,5.38,100,100,6.34,SJ,1723000642
157,carutapera,-1.195,-46.02,25.26,82,100,2.66,BR,1723000643
158,vila franca do campo,37.7167,-25.4333,22.23,92,30,2.4,PT,1723000644
159,mana,5.6592,-53.7767,26.27,82,22,3.31,GF,1723000645
160,susuman,62.7833,148.1667,9.26,75,100,1.79,RU,1723000646
161,tsiombe,-25.3,45.4833,19.11,83,100,4.58,MG,1723000647
162,viqueque,-8.8673,126.3658,28.55,56,68,4.1,TL,1723000649
163,lubana,56.9,26.7167,12.82,98,39,1.9,LV,1723000650
164,keflavik,64.0049,-22.5624,10.24,93,0,2.57,IS,1723000378
165,malanje,-9.5402,16.341,16.74,72,7,1.67,AO,1723000652
166,ghadamis,30.1337,9.5007,25.77,53,0,4.98,LY,1723000653
167,akureyri,65.6835,-18.0878,7.96,93,100,2.06,IS,1723000654
168,karratha,-20.7377,116.8463,25.38,25,0,2.13,AU,1723000655
169,carolina beach,34.0352,-77.8936,27.04,95,100,9.21,US,1723000656
170,puerto escondido,15.85,-97.0667,28.01,80,100,3.96,MX,1723000657
171,celestun,20.8667,-90.4,27.86,83,100,4.37,MX,1723000658
172,new norfolk,-42.7826,147.0587,14.84,63,100,2.66,AU,1723000659
173,hermanus,-34.4187,19.2345,7.67,82,42,2.35,ZA,1723000661
174,saint-joseph,-21.3667,55.6167,18.21,64,0,1.52,RE,1723000662
175,carnarvon,-24.8667,113.6333,21.41,63,100,4.59,AU,1723000663
176,dwarka,22.2394,68.9678,27.95,84,100,9.16,IN,1723000664
177,yuzhno-sakhalinsk,46.9581,142.7337,23.79,73,6,6.0,RU,1723000665
178,qarqaraly,49.4058,75.4742,23.81,37,6,2.91,KZ,1723000666
179,berezovyy,51.6667,135.7,28.38,52,67,3.45,RU,1723000667
180,new corella,7.6,125.8667,30.04,66,96,1.96,PH,1723000668
181,katsuura,35.1333,140.3,28.04,84,92,3.11,JP,1723000669
182,codrington,-38.2667,141.9667,15.37,61,8,6.45,AU,1723000670
183,metro,-5.1131,105.3067,29.05,64,60,2.8,ID,1723000671
184,dadukou,26.5479,101.7054,27.09,71,71,0.69,CN,1723000672
185,ar ruways,24.1103,52.7306,33.11,41,93,2.44,AE,1723000674
186,thompson,55.7435,-97.8558,11.09,93,100,3.09,CA,1723000675
187,sai buri,6.7013,101.6168,29.84,68,78,2.83,TH,1723000677
188,veinticinco de mayo,-35.4323,-60.1727,9.43,89,60,0.89,AR,1723000678
189,kailua-kona,19.6406,-155.9956,25.98,90,100,1.54,US,1723000679
190,chernyshevskiy,63.0128,112.4714,17.45,47,96,2.28,RU,1723000680
191,gaoual,11.75,-13.2,22.56,98,99,1.25,GN,1723000681
192,lihue,21.9789,-159.3672,27.77,66,20,7.72,US,1723000682
193,qui nhon,13.7667,109.2333,32.49,54,18,2.67,VN,1723000683
194,rikaze,29.25,88.8833,16.6,44,100,1.82,CN,1723000684
195,ierapetra,35.01,25.7353,28.41,37,0,2.24,GR,1723000685
196,solnechnyy,50.7214,136.6319,25.86,73,87,2.5,RU,1723000687
197,constantia,44.1833,28.65,15.39,88,0,5.67,RO,1723000688
198,trevelin,-43.0858,-71.4639,3.71,93,85,0.92,AR,1723000689
199,carrizo springs,28.5219,-99.8606,33.34,37,40,1.54,US,1723000690
200,punta arenas,-53.15,-70.9167,-2.94,93,20,2.57,CL,1723000402
201,usinsk,65.9939,57.5281,11.4,57,41,5.77,RU,1723000692
202,san patricio,28.017,-97.5169,30.5,67,0,4.92,US,1723000693
203,qaqortoq,60.7167,-46.0333,8.75,87,100,1.79,GL,1723000694
204,caleta de carquin,-11.0925,-77.6267,16.55,87,23,5.76,PE,1723000695
205,la passe,45.5549,-0.8967,20.13,80,100,4.43,FR,1723000696
206,boguchany,58.3814,97.4531,18.54,90,100,2.36,RU,1723000697
207,selfoss,63.9331,-20.9971,7.25,85,26,2.21,IS,1723000698
208,haiku-pauwela,20.9219,-156.3051,27.34,67,20,10.8,US,1723000699
209,campos dos goytacazes,-21.75,-41.3,21.39,85,7,5.17,BR,1723000701
210,jutai,-5.1833,-68.9,25.35,73,73,0.79,BR,1723000702
211,laojunmiao,39.8333,97.7333,27.73,23,0,6.03,CN,1723000704
212,sidi bou ali,35.9567,10.4731,25.25,88,0,1.03,TN,1723000705
213,touros,-5.1989,-35.4608,23.23,86,1,5.42,BR,1723000706
214,yambio,4.5721,28.3955,20.25,89,91,0.83,SS,1723000707
215,broken hill,-31.95,141.4333,14.7,42,45,2.46,AU,1723000708
216,xuchang,34.0167,113.8167,31.31,70,4,2.5,CN,1723000709
217,camacupa,-12.0167,17.4833,14.37,25,3,1.95,AO,1723000710
218,pizarro,4.9533,-77.366,25.27,86,97,1.45,CO,1723000572
219,kaa-khem,51.6833,94.7333,21.66,45,23,1.71,RU,1723000712
220,sirte,31.2089,16.5887,27.45,75,74,4.2,LY,1723000714
221,jamestown,42.097,-79.2353,16.68,91,100,5.14,US,1723000715
222,okhotsk,59.3833,143.3,11.97,79,100,3.12,RU,1723000716
223,cidreira,-30.1811,-50.2056,16.34,99,98,6.11,BR,1723000717
224,enewetak,11.3474,162.3373,28.7,77,100,5.5,MH,1723000718
225,fort st. john,56.2499,-120.8529,18.94,63,40,1.54,CA,1723000719
226,bandarbeyla,9.4942,50.8122,25.67,72,6,11.54,SO,1723000720
227,lebu,-37.6167,-73.65,5.52,85,2,2.28,CL,1723000632
228,rio grande,-32.035,-52.0986,16.08,99,100,2.94,BR,1723000722
229,igarka,67.4667,86.5833,13.29,56,0,7.38,RU,1723000723
230,isafjordur,66.0755,-23.124,6.27,90,98,3.14,IS,1723000724
231,talnakh,69.4865,88.3972,16.12,46,2,7.75,RU,1723000725
232,ascension,30.2169,-90.9001,30.12,83,0,0.0,US,1723000727
233,taitung city,22.7583,121.1444,33.15,70,75,2.57,TW,1723000728
234,labytnangi,66.6572,66.4183,11.75,55,2,1.14,RU,1723000729
235,macau,22.2006,113.5461,35.4,84,40,4.63,MO,1723000730
236,namie,37.4833,141.0,27.64,77,28,3.33,JP,1723000731
237,rongelap,11.1635,166.8941,28.54,77,100,3.89,MH,1723000732
238,lompoc,34.6391,-120.4579,25.56,100,100,3.09,US,1723000686
239,ambon,-3.6954,128.1814,27.15,95,40,3.09,ID,1723000734
240,waupaca,44.358,-89.086,16.79,90,0,1.54,US,1723000735
241,stanley,54.868,-1.6985,13.01,88,7,2.57,GB,1723000710
242,cooma,-36.2333,149.1333,11.57,42,11,1.23,AU,1723000737
243,acarau,-2.8856,-40.12,24.67,86,2,6.82,BR,1723000738
244,kapa'a,22.0752,-159.319,28.18,69,20,7.72,US,1723000739
245,kirensk,57.7853,108.1119,26.83,40,15,1.08,RU,1723000741
246,hluti,-27.2167,31.6167,10.71,84,0,1.39,SZ,1723000742
247,ancud,-41.8697,-73.8203,5.35,90,55,2.03,CL,1723000743
248,kirakira,-10.4544,161.9205,28.25,74,52,6.75,SB,1723000744
249,medina,24.4686,39.6142,31.24,42,40,3.09,SA,1723000501
250,olpad,21.3333,72.75,27.99,85,100,5.57,IN,1723000746
251,port antonio,18.18,-76.4612,29.95,89,66,0.9,JM,1723000747
252,chimbote,-9.0853,-78.5783,16.67,86,63,4.44,PE,1723000748
253,machico,32.7,-16.7667,24.35,77,20,4.12,PT,1723000749
254,bologoye,57.8799,34.1068,12.41,94,38,1.19,RU,1723000750
255,la libertad,-2.2333,-80.9,22.81,83,40,6.17,EC,1723000751
256,hailey,43.5196,-114.3153,24.62,25,0,2.57,US,1723000752
257,porto barra do ivinheima,-22.9667,-53.6667,21.44,41,42,2.61,BR,1723000753
258,ola,59.5833,151.2833,12.19,78,100,0.88,RU,1723000755
259,tura,25.5198,90.2201,24.77,94,100,1.81,IN,1723000756
260,geraldton,-28.7667,114.6,20.23,68,75,6.17,AU,1723000757
261,el vigia,8.6219,-71.6506,24.08,82,90,2.47,VE,1723000758
262,panadura,6.7132,79.9026,28.17,78,94,4.94,LK,1723000759
263,cide,41.8921,33.0044,20.7,71,3,2.71,TR,1723000760
264,broome,42.2506,-75.833,19.21,95,100,3.09,US,1723000761
265,fort saskatchewan,53.7168,-113.2187,17.34,72,99,4.92,CA,1723000618
266,terra santa,-2.1042,-56.4869,25.77,50,64,1.43,BR,1723000763
267,gobabis,-22.45,18.9667,13.29,25,14,2.44,NA,1723000764
268,pucheng,27.9233,118.5333,34.2,53,50,1.11,CN,1723000765
269,holualoa,19.6228,-155.9522,23.91,92,100,1.54,US,1723000766
270,zaki biam,7.5167,9.6167,23.16,87,76,5.09,NG,1723000768
271,port blair,11.6667,92.75,28.02,89,100,3.09,IN,1723000769
272,santana,-0.0583,-51.1817,29.1,79,75,2.57,BR,1723000770
273,blackwater,-23.5833,148.8833,20.52,64,96,2.48,AU,1723000771
274,anton lizardo,19.05,-95.9833,28.12,79,74,2.32,MX,1723000772
275,flying fish cove,-10.4217,105.6791,26.82,78,40,6.69,CX,1723000773
276,marka,1.7159,44.7717,24.21,89,26,5.39,SO,1723000774
277,atafu village,-8.5421,-172.5159,28.35,76,100,6.62,TK,1723000775
278,nema,57.5067,50.5011,16.17,86,99,1.69,RU,1723000776
279,luderitz,-26.6481,15.1594,11.56,81,85,2.0,NA,1723000777
280,nishinoomote,30.7333,131.0,32.31,74,75,4.12,JP,1723000778
281,houlton,46.1262,-67.8403,13.23,93,0,0.0,US,1723000780
282,mount isa,-20.7333,139.5,21.87,24,26,4.12,AU,1723000598
283,gandarbal,34.2333,74.7833,22.56,83,51,1.97,IN,1723000782
284,finote selam,10.7,37.2667,13.68,96,100,0.69,ET,1723000783
285,garoua boulai,5.8833,14.55,16.99,99,100,2.2,CM,1723000784
286,sevastopol,44.6,33.5333,21.67,55,96,4.38,UA,1723000785
287,tuba city,36.135,-111.2399,25.77,49,42,4.47,US,1723000786
288,at taj,24.2049,23.2857,30.85,18,93,5.63,LY,1723000787
289,afaahiti,-17.75,-149.2833,25.93,86,17,9.03,PF,1723000788
290,guerrero negro,27.9769,-114.0611,22.6,77,16,4.17,MX,1723000636
291,tateyama,34.9833,139.8667,28.51,80,100,0.61,JP,1723000790
292,bel ombre,-4.6167,55.4167,25.91,89,40,3.6,SC,1723000791
293,bac lieu,9.285,105.7244,30.22,66,19,5.29,VN,1723000793
294,karatuzskoye,53.6072,92.8667,17.82,83,93,2.09,RU,1723000794
295,dakhla,23.6848,-15.958,19.25,94,34,9.42,EH,1723000795
296,puerto armuelles,8.2833,-82.8667,24.99,93,100,0.45,PA,1723000796
297,argo,37.6333,22.7333,24.88,57,0,1.91,GR,1723000797
298,spas-demensk,54.4122,34.0226,14.38,88,100,1.99,RU,1723000798
299,nabire,-3.3667,135.4833,27.33,86,100,1.6,ID,1723000799
300,balancan,17.8,-91.5333,26.32,88,73,2.53,MX,1723000800
301,shenkursk,62.1091,42.896,13.83,89,100,1.57,RU,1723000801
302,nuriootpa,-34.4833,139.0,17.01,43,3,4.78,AU,1723000802
303,sweetwater,25.7634,-80.3731,29.45,87,75,4.12,US,1723000472
304,badger,64.8,-147.5333,22.95,55,75,2.57,US,1723000804
305,alofi,-19.0595,-169.9187,23.94,64,100,5.14,NU,1723000806
306,point pedro,9.8167,80.2333,28.38,78,100,3.79,LK,1723000807
307,mpanda,-6.3655,31.0409,16.67,39,50,0.49,TZ,1723000808
308,east london,-33.0153,27.9116,13.52,54,0,5.14,ZA,1723000809
309,luanda,-8.8368,13.2343,19.36,95,38,2.26,AO,1723000746
310,nizhnyaya omka,55.4338,74.9426,19.05,85,25,2.53,RU,1723000811
311,bereket,39.2446,55.5154,30.13,49,50,3.51,TM,1723000812
312,kindu,-2.95,25.95,20.23,49,8,1.16,CD,1723000813
313,lipovtsy,44.2014,131.7244,23.15,95,100,1.43,RU,1723000814
314,woolgoolga,-30.1106,153.2007,19.47,69,88,4.12,AU,1723000815
315,bondowoso,-7.9135,113.8214,30.56,52,35,1.55,ID,1723000816
316,morden,49.1919,-98.1014,20.91,68,52,3.6,CA,1723000817
317,khandyga,62.6667,135.6,14.55,74,98,2.43,RU,1723000819
318,sanming,26.2486,117.6186,33.99,54,6,1.21,CN,1723000820
319,tomatlan,19.9333,-105.25,25.45,90,100,0.82,MX,1723000821
320,margate,51.3813,1.3862,15.39,84,31,4.5,GB,1723000822
321,grand-bassam,5.2118,-3.7388,24.98,87,94,3.82,CI,1723000823
322,vittel,48.2009,5.9484,18.9,94,100,1.03,FR,1723000824
323,provadia,43.1833,27.4333,16.44,88,0,2.19,BG,1723000825
324,prata,-19.3072,-48.9242,20.06,44,0,2.85,BR,1723000826
325,el porvenir,13.7617,-87.3458,23.63,91,78,2.29,HN,1723000827
326,green river,41.5286,-109.4662,27.22,36,44,1.34,US,1723000828
327,soio,-6.1349,12.3689,20.08,93,65,1.87,AO,1723000829
328,kiunga,-6.1219,141.2906,28.35,71,100,2.6,PG,1723000831
329,richards bay,-28.783,32.0377,15.12,81,0,3.42,ZA,1723000832
330,marakkanam,12.2,79.95,27.19,66,100,1.69,IN,1723000833
331,sola,-13.8833,167.55,24.78,67,100,10.85,VU,1723000834
332,prince george,53.9166,-122.753,21.69,56,0,1.54,CA,1723000835
333,rafraf,37.1904,10.1837,22.17,75,0,1.09,TN,1723000836
334,saint-louis,16.3333,-15.0,26.4,74,100,4.03,SN,1723000837
335,tolanaro,-25.0319,46.9987,20.04,88,75,6.17,MG,1723000838
336,orosei,40.3798,9.6929,24.81,66,0,1.75,IT,1723000839
337,vernon,50.2581,-119.2691,22.97,35,33,1.08,CA,1723000266
338,kamaishi,39.2667,141.8833,28.26,69,6,2.72,JP,1723000841
339,huarmey,-10.0681,-78.1522,17.03,87,24,5.16,PE,1723000507
340,namibe,-15.1961,12.1522,17.65,92,9,2.13,AO,1723000845
341,oltinko'l,40.8011,72.1634,31.57,22,4,0.97,UZ,1723000846
342,petropavlovsk-kamchatsky,53.0452,158.6483,14.33,88,75,2.0,RU,1723000847
343,fort mcmurray,56.7268,-111.381,18.77,63,0,3.09,CA,1723000848
344,chonchi,-42.6128,-73.8092,2.84,96,9,0.67,CL,1723000638
345,perm,58.0174,56.2855,15.7,100,100,2.0,RU,1723000850
346,illizi,26.4833,8.4667,27.89,27,0,1.98,DZ,1723000852
347,neunkirchen,49.35,7.1833,17.4,93,0,0.51,DE,1723000853
348,nizhniy kuranakh,58.8353,125.4869,20.89,63,80,1.98,RU,1723000855
349,saint-philippe,-21.3585,55.7679,18.77,68,1,1.43,RE,1723000857
350,gazojak,41.1875,61.4036,32.36,17,0,3.44,TM,1723000859
351,emerald,-23.5333,148.1667,19.08,72,98,3.46,AU,1723000860
352,pingliang,35.5392,106.6861,22.49,78,92,1.84,CN,1723000581
353,al kharijah,25.4514,30.5464,30.92,23,2,4.55,EG,1723000862
354,saynshand,44.8824,110.1163,27.92,28,39,4.15,MN,1723000863
355,bangolo,7.0069,-7.475,21.31,99,100,1.59,CI,1723000864
356,alo,6.5486,4.2686,24.15,85,100,3.5,NG,1723000865
357,chivilcoy,-34.8957,-60.0167,9.46,85,22,7.1,AR,1723000695
358,leava,-14.3,-178.1667,25.53,66,1,9.16,WF,1723000867
359,roma,43.2128,-75.4557,17.54,91,75,0.0,US,1723000648
360,inhambane,-23.865,35.3833,18.35,82,21,2.37,MZ,1723000870
361,palopo,-2.9996,120.1921,26.09,88,69,1.17,ID,1723000871
362,ust'-kulom,61.6864,53.6902,10.26,89,100,3.07,RU,1723000872
363,arraial do cabo,-22.9661,-42.0278,22.92,83,20,11.32,BR,1723000873
364,brookings,44.3114,-96.7984,17.0,86,0,3.6,US,1723000638
365,nevel'sk,46.6733,141.8633,21.0,79,11,3.97,RU,1723000876
366,hirara,24.8,125.2833,31.92,89,75,5.66,JP,1723000877
367,sitangkai,4.6628,119.3928,28.74,76,100,3.4,PH,1723000878
368,moose jaw,50.4001,-105.5344,17.14,77,14,4.63,CA,1723000879
369,senador guiomard,-10.1522,-67.7392,22.86,60,60,0.77,BR,1723000880
370,gadzhiyevo,69.2551,33.3362,12.71,59,54,3.7,RU,1723000883
371,sittwe,20.15,92.9,26.16,90,100,3.48,MM,1723000885
372,suntar,62.1444,117.6319,19.09,45,98,2.4,RU,1723000886
373,kattivakkam,13.2167,80.3167,26.77,93,100,1.33,IN,1723000887
374,egersund,58.4513,5.9997,18.38,94,100,5.35,NO,1723000889
375,ostersund,63.1792,14.6357,15.34,100,75,4.63,SE,1723000890
376,remire-montjoly,4.9167,-52.2667,25.02,94,20,1.03,GF,1723000892
377,san luis,-33.295,-66.3356,4.98,65,5,3.75,AR,1723000893
378,sumbawa besar,-8.5,117.4333,34.14,36,4,4.31,ID,1723000895
379,sisimiut,66.9395,-53.6735,5.55,89,100,2.35,GL,1723000896
380,carbonear,47.7332,-53.2148,16.81,88,100,5.83,CA,1723000897
381,pariaman,-0.619,100.12,30.03,71,80,1.29,ID,1723000898
382,dzerzhinskoye,56.8344,95.2283,17.83,83,100,2.92,RU,1723000899
383,ahero,-0.1746,34.9163,19.99,74,87,2.11,KE,1723000900
384,naracoorte,-36.9579,140.7383,15.67,55,17,5.3,AU,1723000901
385,choibalsan,48.0667,114.5,25.57,43,6,3.09,MN,1723000902
386,la concordia,13.1953,-86.1667,19.64,93,98,2.45,NI,1723000904
387,zhanaozen,43.3,52.8,31.01,26,12,3.65,KZ,1723000905
388,dunedin,-45.8742,170.5036,11.0,65,99,1.34,NZ,1723000906
389,sao vicente,-23.9631,-46.3919,28.1,66,0,1.21,BR,1723000870
390,sylvania,41.7189,-83.713,20.46,85,100,6.17,US,1723000908
391,howrah,22.5892,88.3103,30.0,84,75,3.6,IN,1723000909
392,protaras,35.0125,34.0583,26.1,91,0,0.45,CY,1723000910
393,kendari,-3.945,122.4989,28.67,66,31,2.62,ID,1723000911
394,harper,4.375,-7.7169,23.29,84,100,3.94,LR,1723000912
395,chui,-33.6971,-53.4616,15.55,98,100,4.38,UY,1723000801
396,i-n-salah,27.1935,2.4607,31.91,14,0,4.28,DZ,1723000914
397,dedza,-14.3779,34.3332,10.82,71,0,1.25,MW,1723000916
398,kingscliff,-28.2667,153.5667,21.54,60,75,6.69,AU,1723000917
399,la'ie,21.6477,-157.9253,29.98,73,5,2.68,US,1723000918
400,pasian di prato,46.0486,13.1875,22.59,75,0,3.09,IT,1723000919
401,seosan,36.7817,126.4522,30.55,67,6,2.31,KR,1723000920
402,derbent,42.0678,48.2899,26.63,70,0,3.79,RU,1723000921
403,dawson creek,55.7666,-120.2362,20.8,56,20,2.06,CA,1723000922
404,saudarkrokur,65.7461,-19.6394,8.16,89,100,2.21,IS,1723000923
405,saint-georges,12.0564,-61.7485,28.82,74,40,6.17,GD,1723000759
406,taroa,8.7058,171.2275,28.62,76,86,3.77,MH,1723000872
407,san antonio oeste,-40.7319,-64.9477,8.81,80,100,11.5,AR,1723000926
408,belyy yar,53.6039,91.3903,20.94,64,0,2.0,RU,1723000928
409,oranjemund,-28.55,16.4333,10.97,83,60,0.6,NA,1723000929
410,valbo,60.65,17.0333,15.9,100,100,1.15,SE,1723000930
411,abalak,58.1286,68.5944,14.38,91,96,3.44,RU,1723000931
412,minas de marcona,-15.2119,-75.1103,9.83,92,74,6.02,PE,1723000932
413,chulym,55.0997,80.9572,19.51,86,77,4.01,RU,1723000933
414,kolokani,13.5728,-8.0339,23.01,94,97,3.37,ML,1723000934
415,yantzaza,-3.8278,-78.7594,19.22,99,30,0.64,EC,1723000935
416,mamuju,-2.6748,118.8885,27.29,86,75,1.8,ID,1723000937
417,belokurikha,51.9959,84.9896,21.96,62,99,1.71,RU,1723000938
418,san severino marche,43.2281,13.1802,22.9,64,0,2.28,IT,1723000940
419,yuanping,38.7153,112.7575,19.1,87,100,0.88,CN,1723000941
420,palikir - national government center,6.9248,158.1611,27.47,100,100,0.0,FM,1723000942
421,tarko-sale,64.9225,77.785,11.58,59,5,7.41,RU,1723000943
422,punta alta,-38.8759,-62.0736,8.75,83,100,7.91,AR,1723000944
423,tamanrasset,22.785,5.5228,26.95,12,0,5.14,DZ,1723000945
424,chernomorskoye,45.5039,32.6997,23.04,65,95,3.05,UA,1723000946
425,walvis bay,-22.9575,14.5053,11.72,93,87,1.05,NA,1723000947
426,porto novo,6.4965,2.6036,24.9,84,98,3.34,BJ,1723000948
427,egilsstadir,65.2653,-14.3948,5.95,100,20,1.03,IS,1723000952
428,bengkulu,-3.8004,102.2655,28.07,73,79,2.78,ID,1723000953
429,lingdong,46.5669,131.1453,27.47,69,100,2.72,CN,1723000954
430,nadi,-17.8,177.4167,26.0,53,75,6.69,FJ,1723000955
431,liman,48.9884,37.8023,17.57,55,62,1.87,UA,1723000956
432,yung shue wan,22.2333,114.1167,32.68,72,1,0.89,HK,1723000957
433,misratah,32.3754,15.0925,27.67,68,4,3.42,LY,1723000958
434,newman,37.3138,-121.0208,34.99,11,0,2.84,US,1723000959
435,hithadhoo,-0.6,73.0833,27.89,73,78,2.13,MV,1723000960
436,castillos,-34.1667,-53.8333,15.94,96,100,4.35,UY,1723000961
437,salida,37.7058,-121.0849,34.43,35,0,4.94,US,1723000962
438,gundorovskiy,46.7805,41.8968,20.11,81,25,0.41,RU,1723000963
439,bulawayo,-20.15,28.5833,10.57,91,1,3.03,ZW,1723000965
440,arkhangel'sk,64.5401,40.5433,11.06,87,0,3.0,RU,1723000966
441,shakawe,-18.3667,21.85,14.26,20,0,1.06,BW,1723000967
442,klaksvik,62.2266,-6.589,11.51,95,100,8.97,FO,1723000968
443,merritt,50.1123,-120.7942,25.74,29,97,0.89,CA,1723000969
444,mitu,1.1983,-70.1733,22.32,98,20,1.03,CO,1723000680
445,along,28.1667,94.7667,27.47,73,48,0.7,IN,1723000971
446,barth,54.3635,12.7249,16.16,80,9,4.29,DE,1723000972
447,kokopo,-4.352,152.2633,29.6,67,99,3.51,PG,1723000973
448,gebeit,21.0667,36.3167,25.74,71,100,3.98,SD,1723000974
449,suva,-18.1416,178.4415,23.71,60,75,3.6,FJ,1723000975
450,kitangari,-10.65,39.3333,15.34,97,16,1.62,TZ,1723000978
451,lorengau,-2.0226,147.2712,28.7,76,26,4.51,PG,1723000979
452,bautzen,51.1833,14.4333,15.91,83,79,2.82,DE,1723000980
453,oshnaviyeh,37.0397,45.0983,22.57,30,0,1.53,IR,1723000981
454,xichang,27.8964,102.2634,24.76,72,15,0.97,CN,1723000982
455,kichmengskiy gorodok,59.9816,45.7854,13.06,97,100,2.26,RU,1723000983
456,lahad datu,5.0268,118.327,29.05,70,95,2.31,MY,1723000984
457,nchelenge,-9.3451,28.734,16.62,36,5,2.35,ZM,1723000985
458,yerofey pavlovich,53.9667,121.9667,22.78,43,100,2.31,RU,1723000986
459,curaca,-8.9903,-39.9094,21.39,73,95,7.85,BR,1723000987
460,forest city,28.6668,-81.4433,29.08,81,0,5.66,US,1723000725
461,cadale,2.7603,46.3222,24.55,88,50,5.71,SO,1723000990
462,grand falls-windsor,48.9332,-55.6649,14.17,84,10,4.31,CA,1723000886
463,hotan,37.0997,79.9269,21.92,56,100,8.62,CN,1723000992
464,rundu,-17.9333,19.7667,14.42,20,0,0.85,NA,1723000993
465,namsos,64.4662,11.4957,20.03,77,100,5.14,NO,1723000994
466,shohimardon,39.9839,71.8028,23.43,35,0,1.56,UZ,1723000995
467,alexandria,31.2156,29.9553,27.33,72,0,3.57,EG,1723000996
468,mugia,43.1041,-9.2179,18.28,79,0,7.4,ES,1723000997
469,howard springs,-12.497,131.047,32.21,42,31,5.88,AU,1723000998
470,nago,26.5881,127.9761,33.24,71,49,3.3,JP,1723000999
471,queenstown,-31.8976,26.8753,7.19,21,0,2.49,ZA,1723001000
472,portage la prairie,49.9728,-98.2926,20.05,62,75,4.63,CA,1723001001
473,glendive,47.1053,-104.7125,26.21,36,91,5.35,US,1723001003
474,jati,24.3539,68.2671,27.9,79,100,7.96,PK,1723001005
475,puerto lempira,15.2667,-83.7667,26.96,87,100,3.79,HN,1723001006
476,khanty-mansiysk,61.0042,69.0019,13.06,58,40,3.0,RU,1723001007
477,xinshi,31.047,113.141,31.48,72,100,4.94,CN,1723001009
478,tobelo,1.7284,128.0095,27.04,80,99,0.23,ID,1723001010
479,tchintabaraden,15.8969,5.7985,25.0,69,100,8.4,NE,1723000875
480,xinqing,48.2333,129.5,28.23,57,100,1.32,CN,1723001012
481,kerikeri,-35.2268,173.9474,13.0,64,96,1.94,NZ,1723001013
482,tlanchinol,20.9833,-98.65,18.14,97,85,1.6,MX,1723001014
483,keetmanshoop,-26.5833,18.1333,11.71,28,37,2.26,NA,1723001016
484,kavaratti,10.5669,72.642,26.99,82,100,4.31,IN,1723001017
485,martapura,-3.4167,114.85,26.05,89,20,5.14,ID,1723001018
486,marion,39.7684,-86.1555,23.64,88,100,4.63,US,1723001019
487,iskateley,67.6803,53.1512,10.28,64,8,2.95,RU,1723001021
488,pursat,12.3333,103.6667,30.19,55,96,0.98,KH,1723001022
489,poronaysk,49.2167,143.1167,20.5,86,14,3.95,RU,1723001023
490,progreso,21.2833,-89.6667,29.42,91,91,3.37,MX,1723001024
491,huayin,34.5675,110.0921,30.14,70,100,0.61,CN,1723001025
492,corinto,37.9407,22.9573,24.94,66,0,2.22,GR,1723001026
493,parras de la fuente,25.4167,-102.1833,25.17,44,78,4.95,MX,1723001028
494,beledweyne,4.7358,45.2036,24.97,75,92,8.29,SO,1723001029
495,pithora,21.2667,82.5167,23.79,96,100,2.85,IN,1723000753
496,menongue,-14.6585,17.691,11.96,23,3,1.36,AO,1723001031
497,manavalakurichi,8.1333,77.3,29.91,70,100,6.51,IN,1723001032
498,afua,-0.1567,-50.3867,24.38,86,21,2.35,BR,1723001033
499,trebisov,48.6286,21.7195,15.18,84,0,2.41,SK,1723001034
500,turmalina,-17.2856,-42.73,18.76,72,98,1.57,BR,1723001035
501,kuytun,54.3419,101.5036,17.83,77,94,3.34,RU,1723001036
502,t'ongch'on-up,38.9539,127.8917,30.59,64,79,0.91,KP,1723001037
503,tanout,14.9709,8.8879,25.69,74,100,7.66,NE,1723001040
504,fale old settlement,-9.3852,-171.2468,28.32,73,51,6.54,TK,1723001041
505,eforie sud,44.0229,28.6494,15.45,89,0,5.66,RO,1723001042
506,amal,59.051,12.7049,16.07,81,26,0.72,SE,1723001043
507,reggane,26.7158,0.1714,35.07,15,1,6.07,DZ,1723001044
508,alotau,-10.3069,150.4462,27.96,68,100,2.53,PG,1723001045
509,papao,-17.75,-149.55,26.82,79,10,9.88,PF,1723001046
510,san fernando,15.0286,120.6898,30.85,68,50,3.85,PH,1723000781
511,bikenibeu village,1.3673,173.1241,30.98,66,20,2.57,KI,1723001048
512,galesong,-5.3166,119.3661,32.01,61,4,1.87,ID,1723001049
513,ormond-by-the-sea,29.3491,-81.0665,28.34,86,0,5.14,US,1723001050
514,cabo san lucas,22.8909,-109.9124,27.09,91,100,1.54,MX,1723000858
515,gao,16.6362,1.637,27.79,55,76,6.1,ML,1723001053
516,bridlington,54.0831,-0.1919,14.38,78,0,0.89,GB,1723001054
517,olhao,37.0286,-7.8411,25.16,68,0,1.54,PT,1723000930
518,levuka,50.1834,-105.4011,16.84,79,11,6.35,CA,1723001056
519,saint-pierre,-21.3393,55.4781,18.82,59,40,4.12,RE,1723001057
520,hasaki,35.7333,140.8333,32.22,80,47,4.8,JP,1723001058
521,vila velha,-20.3297,-40.2925,21.97,89,40,2.24,BR,1723000759
522,san isidro,-12.1167,-77.05,17.07,83,100,5.66,PE,1723001060
523,nuuk,64.1835,-51.7216,8.34,93,100,1.54,GL,1723001061
524,hadibu,12.65,54.0333,25.11,81,55,10.06,YE,1723001062
525,jean-rabel,19.8533,-73.1917,27.48,85,71,4.22,HT,1723001064
526,mingshui,36.7167,117.5,34.21,67,67,2.27,CN,1723001065
527,tazacorte,28.629,-17.9293,23.54,84,75,6.17,ES,1723001066
528,mariental,-24.6333,17.9667,15.18,14,40,3.69,NA,1723001067
529,kuressaare,58.2481,22.5039,14.41,100,100,0.51,EE,1723001068
530,irtyshsk,53.3333,75.4572,21.33,76,100,2.86,KZ,1723001069
531,ust-tsilma,65.441,52.1498,11.66,60,18,2.41,RU,1723001070
532,contai,21.7786,87.7536,29.06,79,100,2.8,IN,1723001071
533,nikolayevsk-on-amure,53.1406,140.73,19.36,84,100,2.1,RU,1723001072
534,shache,38.4167,77.2406,26.38,23,70,5.27,CN,1723001073
535,puerto aysen,-45.4,-72.7,3.84,97,100,0.35,CL,1723001074
536,talavera,15.6167,120.9333,30.12,71,92,1.63,PH,1723001076
537,floro,61.5996,5.0328,21.04,68,100,5.66,NO,1723001077
538,watford city,47.8022,-103.2832,21.92,78,0,8.23,US,1723001078
539,saint-marcel,49.1,1.45,15.72,96,100,1.03,FR,1723001079
540,opuwo,-18.0607,13.84,15.63,36,0,1.44,NA,1723001080
541,port moresby,-9.4431,147.1797,30.68,58,40,5.14,PG,1723001081
542,tofol,5.3248,163.0078,30.88,74,75,4.12,FM,1723001082
543,tromso,69.6496,18.957,12.01,87,3,0.0,NO,1723001083
544,elko,41.0002,-115.5012,29.01,14,0,4.02,US,1723001084
545,holmsund,63.706,20.3641,12.75,93,0,1.54,SE,1723001085
546,najran,17.4924,44.1277,27.36,50,100,2.6,SA,1723001086
547,gdynia,54.5189,18.5319,15.62,63,4,0.85,PL,1723001087
548,marica,-22.9194,-42.8186,22.95,75,0,3.52,BR,1723001089
549,imbituba,-28.24,-48.6703,19.92,97,65,5.46,BR,1723001091
550,sechura,-5.5569,-80.8222,17.74,76,2,6.95,PE,1723001092
551,balkanabat,39.5108,54.3671,28.67,56,52,4.8,TM,1723001093
552,horsham,51.064,-0.3272,13.47,84,0,0.51,GB,1723000911
553,itoman,26.1247,127.6694,33.21,70,75,4.12,JP,1723001095
554,swift current,50.2834,-107.8014,14.45,88,100,9.26,CA,1723000929
555,kupang,-10.1667,123.5833,33.32,46,20,8.75,ID,1723001097
556,alcazar de san juan,39.3901,-3.2083,23.21,30,1,0.97,ES,1723001098
557,al fujairah city,25.1164,56.3414,33.07,70,100,3.6,AE,1723001099
558,thunder bay,48.4001,-89.3168,14.95,67,0,1.03,CA,1723000833
559,siwa oasis,29.2041,25.5195,28.24,50,0,3.38,EG,1723001102
560,abadiania,-16.2042,-48.7069,19.51,53,0,1.19,BR,1723001103
561,al faw,29.9776,48.4741,29.0,28,2,4.55,IQ,1723001104
562,padang,-0.9492,100.3543,30.03,69,87,1.57,ID,1723001105
563,villa carlos paz,-31.4241,-64.4978,7.44,67,29,1.34,AR,1723001106
564,cacu,-18.5567,-51.1308,21.14,38,0,2.15,BR,1723001107
565,tete,-16.1564,33.5867,16.05,82,0,0.0,MZ,1723001108
566,kenai,60.5544,-151.2583,16.05,90,100,2.57,US,1723001109
567,gornopravdinsk,60.05,69.9,14.14,59,15,3.54,RU,1723001110
568,garden city,42.3256,-83.331,19.96,84,100,4.12,US,1723000914
569,zhangjiakou,40.81,114.8794,25.57,60,100,1.39,CN,1723001114
570,kapit,2.0167,112.9333,29.88,68,99,0.78,MY,1723001115
571,pamandzi,-12.7967,45.2794,23.88,83,0,2.57,YT,1723001116
572,diego de almagro,-26.3667,-70.05,8.25,83,18,0.62,CL,1723001117
573,kirkwall,58.9848,-2.9587,12.03,87,59,3.09,GB,1723001118
574,staryy krym,45.0333,35.1,19.59,57,70,1.74,UA,1723001119
575,gornyak,50.9942,81.4661,24.34,49,87,2.81,RU,1723001120
576,yuzhno-kurilsk,44.0306,145.8556,19.93,97,99,2.67,RU,1723001121
577,malango,-2.9627,119.9001,21.73,98,77,1.28,ID,1723001122
578,taro,-8.3862,115.28,25.0,68,50,2.03,ID,1723001124
579,general levalle,-34.0147,-63.9241,5.43,71,2,4.21,AR,1723001125
580,limbdi,22.5667,71.8,28.13,75,100,5.75,IN,1723001126
581,nouadhibou,20.931,-17.0347,20.75,89,5,7.54,MR,1723001127
582,sos'va,59.1766,61.8558,12.58,95,100,2.74,RU,1723001128
583,lata,40.1629,-8.3327,17.82,97,69,1.32,PT,1723001129
584,belaya kholunitsa,58.84,50.8528,13.84,96,76,2.27,RU,1723001071
585,gaozhou,21.9392,110.8461,32.0,61,0,2.48,CN,1723001131
586,taco pozo,-25.6167,-63.2833,17.91,51,27,5.78,AR,1723001133
587,los villares,37.3482,-3.3314,22.4,30,0,1.57,ES,1723001134
588,katsuren-haebaru,26.3369,127.8719,33.21,73,75,4.12,JP,1723001136
589,kasongo-lunda,-6.4667,16.8167,20.39,46,68,0.55,CD,1723001138
590,lauro de freitas,-12.8944,-38.3272,25.01,78,20,3.6,BR,1723001139
591,lubango,-14.9172,13.4925,14.92,38,0,2.57,AO,1723001141
592,ternate,0.8,127.4,27.91,73,84,1.26,ID,1723001142
